[
  {
    "team": "1. FC Heidenheim 1846",
    "aliases": [
      "Heidenheim",
      "1. FC Heidenheim"
    ],
    "city": "Heidenheim an der Brenz",
    "country": "Germany",
    "latitude": 48.6761,
    "longitude": 10.1543,
    "source": "known_team_geo_seed_city_center_v1"
  },
  {
    "team": "1. FC Union Berlin",
    "aliases": [
      "Union Berlin",
      "FC Union Berlin"
    ],
    "city": "Berlin",
    "country": "Germany",
    "latitude": 52.52,
    "longitude": 13.405,
    "source": "known_team_geo_seed_city_center_v1"
  },
  {
    "team": "Aberdeen",
    "city": "Aberdeen",
    "country": "Scotland",
    "latitude": 57.1497,
    "longitude": -2.0943,
    "source": "known_team_geo_seed"
  },
  {
    "team": "Accrington Stanley",
    "city": "Accrington",
    "country": "England",
    "latitude": 53.7535,
    "longitude": -2.3586,
    "source": "known_team_geo_seed_city_center_v1"
  },
  {
    "team": "ADT",
    "aliases": [
      "ADT Tarma"
    ],
    "city": "Tarma",
    "country": "Peru",
    "latitude": -11.4197,
    "longitude": -75.6908,
    "source": "known_team_geo_seed_city_center_v2"
  },
  {
    "team": "AEL",
    "aliases": [
      "AEL Limassol"
    ],
    "city": "Limassol",
    "country": "Cyprus",
    "latitude": 34.7071,
    "longitude": 33.0226,
    "source": "known_team_geo_seed_city_center_v2"
  },
  {
    "team": "AFC Wimbledon",
    "aliases": [
      "Wimbledon"
    ],
    "city": "London",
    "country": "England",
    "latitude": 51.4214,
    "longitude": -0.2064,
    "source": "known_team_geo_seed_city_center_v1"
  },
  {
    "team": "Airdrieonians",
    "city": "Airdrie",
    "country": "Scotland",
    "latitude": 55.866,
    "longitude": -3.9803,
    "source": "known_team_geo_seed"
  },
  {
    "team": "Ajax Amsterdam",
    "aliases": [
      "Ajax"
    ],
    "city": "Amsterdam",
    "country": "Netherlands",
    "latitude": 52.3676,
    "longitude": 4.9041,
    "source": "known_team_geo_seed_city_center_v2"
  },
  {
    "team": "Akritas Chlorakas",
    "city": "Chloraka",
    "country": "Cyprus",
    "latitude": 34.796,
    "longitude": 32.407,
    "source": "known_team_geo_seed"
  },
  {
    "team": "Al Fateh",
    "city": "Al-Hasa",
    "country": "Saudi Arabia",
    "latitude": 25.3833,
    "longitude": 49.5833,
    "source": "known_team_geo_seed_city_center_v2"
  },
  {
    "team": "Al Hazem",
    "city": "Ar Rass",
    "country": "Saudi Arabia",
    "latitude": 25.8694,
    "longitude": 43.4973,
    "source": "known_team_geo_seed_city_center_v2"
  },
  {
    "team": "Al Hilal",
    "city": "Riyadh",
    "country": "Saudi Arabia",
    "latitude": 24.7136,
    "longitude": 46.6753,
    "source": "known_team_geo_seed_city_center_v2"
  },
  {
    "team": "Al Khaleej",
    "city": "Saihat",
    "country": "Saudi Arabia",
    "latitude": 26.475,
    "longitude": 50.0417,
    "source": "known_team_geo_seed_city_center_v2"
  },
  {
    "team": "Alavés",
    "aliases": [
      "Alaves",
      "Deportivo Alaves"
    ],
    "city": "Vitoria-Gasteiz",
    "country": "Spain",
    "latitude": 42.8467,
    "longitude": -2.6716,
    "source": "known_team_geo_seed_city_center_v2"
  },
  {
    "team": "Alverca",
    "aliases": [
      "FC Alverca"
    ],
    "city": "Alverca do Ribatejo",
    "country": "Portugal",
    "latitude": 38.8987,
    "longitude": -9.0386,
    "source": "known_team_geo_seed_city_center_v2"
  },
  {
    "team": "Annecy",
    "city": "Annecy",
    "country": "France",
    "latitude": 45.8992,
    "longitude": 6.1294,
    "source": "known_team_geo_seed_city_center_v1"
  },
  {
    "team": "Anorthosis",
    "aliases": [
      "Anorthosis Famagusta"
    ],
    "city": "Larnaca",
    "country": "Cyprus",
    "latitude": 34.9003,
    "longitude": 33.6232,
    "source": "known_team_geo_seed_city_center_v2"
  },
  {
    "team": "Arbroath",
    "city": "Arbroath",
    "country": "Scotland",
    "latitude": 56.5591,
    "longitude": -2.5869,
    "source": "known_team_geo_seed"
  },
  {
    "team": "Aris Limassol",
    "city": "Limassol",
    "country": "Cyprus",
    "latitude": 34.7071,
    "longitude": 33.0226,
    "source": "known_team_geo_seed_city_center_v2"
  },
  {
    "team": "Arminia Bielefeld",
    "city": "Bielefeld",
    "country": "Germany",
    "latitude": 52.0302,
    "longitude": 8.5325,
    "source": "known_team_geo_seed_city_center_v1"
  },
  {
    "team": "Arouca",
    "city": "Arouca",
    "country": "Portugal",
    "latitude": 40.9306,
    "longitude": -8.2453,
    "source": "known_team_geo_seed_city_center_v2"
  },
  {
    "team": "AS Monaco",
    "aliases": [
      "Monaco"
    ],
    "city": "Monaco",
    "country": "Monaco",
    "latitude": 43.7384,
    "longitude": 7.4246,
    "source": "known_team_geo_seed_city_center_v1"
  },
  {
    "team": "AS Nancy Lorraine",
    "aliases": [
      "Nancy"
    ],
    "city": "Nancy",
    "country": "France",
    "latitude": 48.6921,
    "longitude": 6.1844,
    "source": "known_team_geo_seed_city_center_v2"
  },
  {
    "team": "Athletic Club",
    "aliases": [
      "Athletic Bilbao"
    ],
    "city": "Bilbao",
    "country": "Spain",
    "latitude": 43.263,
    "longitude": -2.935,
    "source": "known_team_geo_seed_city_center_v2"
  },
  {
    "team": "Atlético Nacional",
    "aliases": [
      "Atletico Nacional"
    ],
    "city": "Medellín",
    "country": "Colombia",
    "latitude": 6.2442,
    "longitude": -75.5812,
    "source": "known_team_geo_seed_city_center_v1"
  },
  {
    "team": "AVS",
    "aliases": [
      "AVS Futebol SAD"
    ],
    "city": "Vila das Aves",
    "country": "Portugal",
    "latitude": 41.3703,
    "longitude": -8.41,
    "source": "known_team_geo_seed_city_center_v2"
  },
  {
    "team": "Ayr United",
    "city": "Ayr",
    "country": "Scotland",
    "latitude": 55.4586,
    "longitude": -4.6292,
    "source": "known_team_geo_seed"
  },
  {
    "team": "Banfield",
    "city": "Banfield",
    "country": "Argentina",
    "latitude": -34.7446,
    "longitude": -58.3955,
    "source": "known_team_geo_seed_city_center_v2"
  },
  {
    "team": "Barnet",
    "city": "London",
    "country": "England",
    "latitude": 51.6538,
    "longitude": -0.2,
    "source": "known_team_geo_seed_city_center_v1"
  },
  {
    "team": "Barnsley",
    "city": "Barnsley",
    "country": "England",
    "latitude": 53.5526,
    "longitude": -1.4797,
    "source": "known_team_geo_seed_city_center_v1"
  },
  {
    "team": "Barracas Central",
    "city": "Buenos Aires",
    "country": "Argentina",
    "latitude": -34.6037,
    "longitude": -58.3816,
    "source": "known_team_geo_seed_city_center_v2"
  },
  {
    "team": "Barrow",
    "city": "Barrow-in-Furness",
    "country": "England",
    "latitude": 54.1109,
    "longitude": -3.2276,
    "source": "known_team_geo_seed_city_center_v1"
  },
  {
    "team": "Bastia",
    "aliases": [
      "SC Bastia"
    ],
    "city": "Bastia",
    "country": "France",
    "latitude": 42.6973,
    "longitude": 9.4509,
    "source": "known_team_geo_seed_city_center_v2"
  },
  {
    "team": "Benfica",
    "aliases": [
      "SL Benfica"
    ],
    "city": "Lisbon",
    "country": "Portugal",
    "latitude": 38.7223,
    "longitude": -9.1393,
    "source": "known_team_geo_seed_city_center_v2"
  },
  {
    "team": "Besiktas",
    "aliases": [
      "Besiktas JK",
      "Beşiktaş",
      "Beşiktaş JK"
    ],
    "city": "Istanbul",
    "country": "Turkey",
    "latitude": 41.0422,
    "longitude": 29.0094,
    "source": "known_team_geo_seed"
  },
  {
    "team": "Blackpool",
    "city": "Blackpool",
    "country": "England",
    "latitude": 53.8175,
    "longitude": -3.0357,
    "source": "known_team_geo_seed_city_center_v1"
  },
  {
    "team": "Boca Juniors",
    "city": "Buenos Aires",
    "country": "Argentina",
    "latitude": -34.6037,
    "longitude": -58.3816,
    "source": "known_team_geo_seed_city_center_v2"
  },
  {
    "team": "Bohemians",
    "city": "Dublin",
    "country": "Ireland",
    "latitude": 53.3498,
    "longitude": -6.2603,
    "source": "known_team_geo_seed"
  },
  {
    "team": "Bolton Wanderers",
    "city": "Bolton",
    "country": "England",
    "latitude": 53.5769,
    "longitude": -2.4282,
    "source": "known_team_geo_seed_city_center_v1"
  },
  {
    "team": "Botafogo",
    "city": "Rio de Janeiro",
    "country": "Brazil",
    "latitude": -22.9068,
    "longitude": -43.1729,
    "source": "known_team_geo_seed_city_center_v2"
  },
  {
    "team": "Boulogne",
    "aliases": [
      "US Boulogne"
    ],
    "city": "Boulogne-sur-Mer",
    "country": "France",
    "latitude": 50.7252,
    "longitude": 1.6133,
    "source": "known_team_geo_seed_city_center_v1"
  },
  {
    "team": "Bradford City",
    "city": "Bradford",
    "country": "England",
    "latitude": 53.795,
    "longitude": -1.7594,
    "source": "known_team_geo_seed_city_center_v1"
  },
  {
    "team": "Brentford",
    "city": "London",
    "country": "England",
    "latitude": 51.4865,
    "longitude": -0.289,
    "source": "known_team_geo_seed_city_center_v2"
  },
  {
    "team": "Brighton & Hove Albion",
    "aliases": [
      "Brighton"
    ],
    "city": "Brighton and Hove",
    "country": "England",
    "latitude": 50.8225,
    "longitude": -0.1372,
    "source": "known_team_geo_seed_city_center_v2"
  },
  {
    "team": "Bristol City",
    "city": "Bristol",
    "country": "England",
    "latitude": 51.4545,
    "longitude": -2.5879,
    "source": "known_team_geo_seed_city_center_v1"
  },
  {
    "team": "Bristol Rovers",
    "city": "Bristol",
    "country": "England",
    "latitude": 51.4545,
    "longitude": -2.5879,
    "source": "known_team_geo_seed_city_center_v1"
  },
  {
    "team": "Bromley",
    "city": "London",
    "country": "England",
    "latitude": 51.406,
    "longitude": 0.0132,
    "source": "known_team_geo_seed_city_center_v1"
  },
  {
    "team": "Burton Albion",
    "city": "Burton upon Trent",
    "country": "England",
    "latitude": 52.8073,
    "longitude": -1.6426,
    "source": "known_team_geo_seed_city_center_v1"
  },
  {
    "team": "C.D. Nacional",
    "aliases": [
      "Nacional"
    ],
    "city": "Funchal",
    "country": "Portugal",
    "latitude": 32.6669,
    "longitude": -16.9241,
    "source": "known_team_geo_seed_city_center_v2"
  },
  {
    "team": "Cádiz",
    "aliases": [
      "Cadiz"
    ],
    "city": "Cádiz",
    "country": "Spain",
    "latitude": 36.5271,
    "longitude": -6.2886,
    "source": "known_team_geo_seed_city_center_v2"
  },
  {
    "team": "Cambridge United",
    "city": "Cambridge",
    "country": "England",
    "latitude": 52.2053,
    "longitude": 0.1218,
    "source": "known_team_geo_seed_city_center_v1"
  },
  {
    "team": "Casric Stars",
    "city": "KwaMhlanga",
    "country": "South Africa",
    "latitude": -25.429,
    "longitude": 28.713,
    "venue": "Solomon Mahlangu Stadium",
    "source": "known_team_geo_seed"
  },
  {
    "team": "Castellón",
    "aliases": [
      "Castellon"
    ],
    "city": "Castellón de la Plana",
    "country": "Spain",
    "latitude": 39.9864,
    "longitude": -0.0513,
    "source": "known_team_geo_seed_city_center_v2"
  },
  {
    "team": "Catanzaro",
    "city": "Catanzaro",
    "country": "Italy",
    "latitude": 38.9098,
    "longitude": 16.5877,
    "source": "known_team_geo_seed"
  },
  {
    "team": "Central Córdoba (Santiago del Estero)",
    "aliases": [
      "Central Cordoba",
      "Central Córdoba"
    ],
    "city": "Santiago del Estero",
    "country": "Argentina",
    "latitude": -27.7951,
    "longitude": -64.2615,
    "source": "known_team_geo_seed_city_center_v2"
  },
  {
    "team": "Cerro",
    "city": "Montevideo",
    "country": "Uruguay",
    "latitude": -34.9011,
    "longitude": -56.1645,
    "source": "known_team_geo_seed_city_center_v2"
  },
  {
    "team": "Cheltenham Town",
    "city": "Cheltenham",
    "country": "England",
    "latitude": 51.8994,
    "longitude": -2.0783,
    "source": "known_team_geo_seed_city_center_v1"
  },
  {
    "team": "Chesterfield",
    "city": "Chesterfield",
    "country": "England",
    "latitude": 53.235,
    "longitude": -1.4216,
    "source": "known_team_geo_seed_city_center_v1"
  },
  {
    "team": "Clermont Foot",
    "aliases": [
      "Clermont"
    ],
    "city": "Clermont-Ferrand",
    "country": "France",
    "latitude": 45.7772,
    "longitude": 3.087,
    "source": "known_team_geo_seed_city_center_v2"
  },
  {
    "team": "Como",
    "city": "Como",
    "country": "Italy",
    "latitude": 45.8081,
    "longitude": 9.0852,
    "source": "known_team_geo_seed_city_center_v2"
  },
  {
    "team": "Córdoba",
    "aliases": [
      "Cordoba"
    ],
    "city": "Córdoba",
    "country": "Spain",
    "latitude": 37.8882,
    "longitude": -4.7794,
    "source": "known_team_geo_seed_city_center_v2"
  },
  {
    "team": "Crawley Town",
    "city": "Crawley",
    "country": "England",
    "latitude": 51.1091,
    "longitude": -0.1872,
    "source": "known_team_geo_seed_city_center_v1"
  },
  {
    "team": "Crewe Alexandra",
    "city": "Crewe",
    "country": "England",
    "latitude": 53.1004,
    "longitude": -2.4438,
    "source": "known_team_geo_seed_city_center_v1"
  },
  {
    "team": "Cultural Leonesa",
    "city": "León",
    "country": "Spain",
    "latitude": 42.5987,
    "longitude": -5.5671,
    "source": "known_team_geo_seed_city_center_v2"
  },
  {
    "team": "Damac",
    "city": "Khamis Mushait",
    "country": "Saudi Arabia",
    "latitude": 18.3064,
    "longitude": 42.7292,
    "source": "known_team_geo_seed_city_center_v2"
  },
  {
    "team": "Degerfors IF",
    "city": "Degerfors",
    "country": "Sweden",
    "latitude": 59.2371,
    "longitude": 14.4308,
    "source": "known_team_geo_seed_city_center_v2"
  },
  {
    "team": "Deportivo Maldonado",
    "city": "Maldonado",
    "country": "Uruguay",
    "latitude": -34.9014,
    "longitude": -54.9518,
    "source": "known_team_geo_seed_city_center_v2"
  },
  {
    "team": "Deportivo Riestra",
    "city": "Buenos Aires",
    "country": "Argentina",
    "latitude": -34.6037,
    "longitude": -58.3816,
    "source": "known_team_geo_seed_city_center_v2"
  },
  {
    "team": "Derry City",
    "city": "Derry",
    "country": "Northern Ireland",
    "latitude": 54.9966,
    "longitude": -7.3086,
    "source": "known_team_geo_seed"
  },
  {
    "team": "Doncaster Rovers",
    "city": "Doncaster",
    "country": "England",
    "latitude": 53.5228,
    "longitude": -1.1285,
    "source": "known_team_geo_seed_city_center_v1"
  },
  {
    "team": "Drogheda Utd",
    "aliases": [
      "Drogheda United"
    ],
    "city": "Drogheda",
    "country": "Ireland",
    "latitude": 53.7179,
    "longitude": -6.3561,
    "source": "known_team_geo_seed"
  },
  {
    "team": "Dundalk",
    "city": "Dundalk",
    "country": "Ireland",
    "latitude": 54,
    "longitude": -6.4167,
    "source": "known_team_geo_seed"
  },
  {
    "team": "Dundee",
    "city": "Dundee",
    "country": "Scotland",
    "latitude": 56.462,
    "longitude": -2.9707,
    "source": "known_team_geo_seed_city_center_v2"
  },
  {
    "team": "Dundee United",
    "city": "Dundee",
    "country": "Scotland",
    "latitude": 56.462,
    "longitude": -2.9707,
    "source": "known_team_geo_seed_city_center_v2"
  },
  {
    "team": "Dunfermline Athletic",
    "city": "Dunfermline",
    "country": "Scotland",
    "latitude": 56.0717,
    "longitude": -3.4521,
    "source": "known_team_geo_seed"
  },
  {
    "team": "Dunkerque",
    "aliases": [
      "Dunkirk"
    ],
    "city": "Dunkirk",
    "country": "France",
    "latitude": 51.0344,
    "longitude": 2.3768,
    "source": "known_team_geo_seed_city_center_v1"
  },
  {
    "team": "Dynamo Dresden",
    "city": "Dresden",
    "country": "Germany",
    "latitude": 51.0504,
    "longitude": 13.7373,
    "source": "known_team_geo_seed_city_center_v1"
  },
  {
    "team": "Eibar",
    "city": "Eibar",
    "country": "Spain",
    "latitude": 43.1847,
    "longitude": -2.4716,
    "source": "known_team_geo_seed_city_center_v2"
  },
  {
    "team": "Eintracht Frankfurt",
    "city": "Frankfurt am Main",
    "country": "Germany",
    "latitude": 50.1109,
    "longitude": 8.6821,
    "source": "known_team_geo_seed_city_center_v1"
  },
  {
    "team": "Enosis Neon Paralimni",
    "city": "Paralimni",
    "country": "Cyprus",
    "latitude": 35.0395,
    "longitude": 33.9818,
    "source": "known_team_geo_seed_city_center_v2"
  },
  {
    "team": "Estrela",
    "aliases": [
      "Estrela da Amadora"
    ],
    "city": "Amadora",
    "country": "Portugal",
    "latitude": 38.7597,
    "longitude": -9.2397,
    "source": "known_team_geo_seed_city_center_v2"
  },
  {
    "team": "Ethnikos Achnas",
    "city": "Dasaki Achnas",
    "country": "Cyprus",
    "latitude": 35.046,
    "longitude": 33.786,
    "source": "known_team_geo_seed"
  },
  {
    "team": "Excelsior",
    "aliases": [
      "Excelsior Rotterdam"
    ],
    "city": "Rotterdam",
    "country": "Netherlands",
    "latitude": 51.9244,
    "longitude": 4.4777,
    "source": "known_team_geo_seed_city_center_v2"
  },
  {
    "team": "Exeter City",
    "city": "Exeter",
    "country": "England",
    "latitude": 50.7184,
    "longitude": -3.5339,
    "source": "known_team_geo_seed_city_center_v1"
  },
  {
    "team": "Fagiano Okayama",
    "city": "Okayama",
    "country": "Japan",
    "latitude": 34.6551,
    "longitude": 133.9195,
    "source": "known_team_geo_seed_city_center_v1"
  },
  {
    "team": "Falkirk",
    "city": "Falkirk",
    "country": "Scotland",
    "latitude": 56.0019,
    "longitude": -3.7839,
    "source": "known_team_geo_seed_city_center_v2"
  },
  {
    "team": "FC Augsburg",
    "city": "Augsburg",
    "country": "Germany",
    "latitude": 48.3705,
    "longitude": 10.8978,
    "source": "known_team_geo_seed_city_center_v1"
  },
  {
    "team": "FC Blau-Weiß Linz",
    "aliases": [
      "FC Blau-Weiss Linz",
      "Blau-Weiß Linz",
      "Blau-Weiss Linz"
    ],
    "city": "Linz",
    "country": "Austria",
    "latitude": 48.3069,
    "longitude": 14.2858,
    "source": "known_team_geo_seed_city_center_v2"
  },
  {
    "team": "FC Cajamarca",
    "aliases": [
      "UTC Cajamarca"
    ],
    "city": "Cajamarca",
    "country": "Peru",
    "latitude": -7.1617,
    "longitude": -78.5128,
    "source": "known_team_geo_seed_city_center_v2"
  },
  {
    "team": "FC Cologne",
    "aliases": [
      "1. FC Köln",
      "1. FC Koln",
      "FC Köln",
      "FC Koln"
    ],
    "city": "Cologne",
    "country": "Germany",
    "latitude": 50.9375,
    "longitude": 6.9603,
    "source": "known_team_geo_seed_city_center_v1"
  },
  {
    "team": "FC Famalicao",
    "aliases": [
      "Famalicão",
      "Famalicao"
    ],
    "city": "Vila Nova de Famalicão",
    "country": "Portugal",
    "latitude": 41.407,
    "longitude": -8.5198,
    "source": "known_team_geo_seed_city_center_v2"
  },
  {
    "team": "FC Groningen",
    "city": "Groningen",
    "country": "Netherlands",
    "latitude": 53.2194,
    "longitude": 6.5665,
    "source": "known_team_geo_seed_city_center_v2"
  },
  {
    "team": "FC Nordsjaelland",
    "aliases": [
      "FC Nordsjælland",
      "Nordsjaelland",
      "Nordsjælland"
    ],
    "city": "Farum",
    "country": "Denmark",
    "latitude": 55.8085,
    "longitude": 12.3608,
    "source": "known_team_geo_seed"
  },
  {
    "team": "FC Tokyo",
    "city": "Tokyo",
    "country": "Japan",
    "latitude": 35.6762,
    "longitude": 139.6503,
    "source": "known_team_geo_seed_city_center_v2"
  },
  {
    "team": "FC Utrecht",
    "city": "Utrecht",
    "country": "Netherlands",
    "latitude": 52.0907,
    "longitude": 5.1214,
    "source": "known_team_geo_seed_city_center_v2"
  },
  {
    "team": "Fenerbahce",
    "aliases": [
      "Fenerbahçe"
    ],
    "city": "Istanbul",
    "country": "Turkey",
    "latitude": 41.0082,
    "longitude": 28.9784,
    "source": "known_team_geo_seed_city_center_v2"
  },
  {
    "team": "Fleetwood Town",
    "city": "Fleetwood",
    "country": "England",
    "latitude": 53.9253,
    "longitude": -3.0109,
    "source": "known_team_geo_seed_city_center_v1"
  },
  {
    "team": "Fortuna Düsseldorf",
    "aliases": [
      "Fortuna Dusseldorf"
    ],
    "city": "Düsseldorf",
    "country": "Germany",
    "latitude": 51.2277,
    "longitude": 6.7735,
    "source": "known_team_geo_seed_city_center_v1"
  },
  {
    "team": "Fredrikstad",
    "aliases": [
      "Fredrikstad FK"
    ],
    "city": "Fredrikstad",
    "country": "Norway",
    "latitude": 59.2205,
    "longitude": 10.9347,
    "source": "known_team_geo_seed_city_center_v2"
  },
  {
    "team": "Fulham",
    "city": "London",
    "country": "England",
    "latitude": 51.5074,
    "longitude": -0.1278,
    "source": "known_team_geo_seed_city_center_v2"
  },
  {
    "team": "Galatasaray",
    "city": "Istanbul",
    "country": "Turkey",
    "latitude": 41.0082,
    "longitude": 28.9784,
    "source": "known_team_geo_seed_city_center_v2"
  },
  {
    "team": "Galway Utd",
    "aliases": [
      "Galway United"
    ],
    "city": "Galway",
    "country": "Ireland",
    "latitude": 53.2707,
    "longitude": -9.0568,
    "source": "known_team_geo_seed"
  },
  {
    "team": "Gaziantep FK",
    "city": "Gaziantep",
    "country": "Turkey",
    "latitude": 37.0662,
    "longitude": 37.3833,
    "source": "known_team_geo_seed"
  },
  {
    "team": "Genoa",
    "city": "Genoa",
    "country": "Italy",
    "latitude": 44.4056,
    "longitude": 8.9463,
    "source": "known_team_geo_seed_city_center_v2"
  },
  {
    "team": "Gillingham",
    "city": "Gillingham",
    "country": "England",
    "latitude": 51.3863,
    "longitude": 0.5514,
    "source": "known_team_geo_seed_city_center_v1"
  },
  {
    "team": "Goztepe",
    "aliases": [
      "Göztepe"
    ],
    "city": "Izmir",
    "country": "Turkey",
    "latitude": 38.4237,
    "longitude": 27.1428,
    "source": "known_team_geo_seed_city_center_v2"
  },
  {
    "team": "Grazer AK",
    "aliases": [
      "GAK"
    ],
    "city": "Graz",
    "country": "Austria",
    "latitude": 47.0707,
    "longitude": 15.4395,
    "source": "known_team_geo_seed_city_center_v2"
  },
  {
    "team": "Greenock Morton",
    "city": "Greenock",
    "country": "Scotland",
    "latitude": 55.9565,
    "longitude": -4.77198,
    "source": "known_team_geo_seed"
  },
  {
    "team": "Grenoble",
    "aliases": [
      "Grenoble Foot 38"
    ],
    "city": "Grenoble",
    "country": "France",
    "latitude": 45.1885,
    "longitude": 5.7245,
    "source": "known_team_geo_seed_city_center_v2"
  },
  {
    "team": "Grimsby Town",
    "city": "Grimsby",
    "country": "England",
    "latitude": 53.5675,
    "longitude": -0.0808,
    "source": "known_team_geo_seed_city_center_v1"
  },
  {
    "team": "Guingamp",
    "aliases": [
      "EA Guingamp"
    ],
    "city": "Guingamp",
    "country": "France",
    "latitude": 48.5625,
    "longitude": -3.1502,
    "source": "known_team_geo_seed_city_center_v2"
  },
  {
    "team": "Hamburg SV",
    "aliases": [
      "Hamburger SV",
      "HSV"
    ],
    "city": "Hamburg",
    "country": "Germany",
    "latitude": 53.5511,
    "longitude": 9.9937,
    "source": "known_team_geo_seed_city_center_v1"
  },
  {
    "team": "Harrogate Town",
    "city": "Harrogate",
    "country": "England",
    "latitude": 53.9921,
    "longitude": -1.5418,
    "source": "known_team_geo_seed_city_center_v1"
  },
  {
    "team": "Highbury",
    "aliases": [
      "Highbury FC"
    ],
    "city": "Gqeberha",
    "country": "South Africa",
    "latitude": -33.9608,
    "longitude": 25.6022,
    "source": "known_team_geo_seed"
  },
  {
    "team": "Holstein Kiel",
    "city": "Kiel",
    "country": "Germany",
    "latitude": 54.3233,
    "longitude": 10.1228,
    "source": "known_team_geo_seed_city_center_v1"
  },
  {
    "team": "Huddersfield Town",
    "city": "Huddersfield",
    "country": "England",
    "latitude": 53.6458,
    "longitude": -1.785,
    "source": "known_team_geo_seed_city_center_v1"
  },
  {
    "team": "IK Sirius",
    "city": "Uppsala",
    "country": "Sweden",
    "latitude": 59.8586,
    "longitude": 17.6389,
    "source": "known_team_geo_seed_city_center_v2"
  },
  {
    "team": "Istanbul Basaksehir",
    "aliases": [
      "İstanbul Başakşehir",
      "Basaksehir"
    ],
    "city": "Istanbul",
    "country": "Turkey",
    "latitude": 41.0082,
    "longitude": 28.9784,
    "source": "known_team_geo_seed_city_center_v2"
  },
  {
    "team": "JEF United Ichihara-Chiba",
    "aliases": [
      "JEF United Chiba"
    ],
    "city": "Chiba",
    "country": "Japan",
    "latitude": 35.6074,
    "longitude": 140.1065,
    "source": "known_team_geo_seed_city_center_v2"
  },
  {
    "team": "Juventud",
    "city": "Las Piedras",
    "country": "Uruguay",
    "latitude": -34.7302,
    "longitude": -56.2192,
    "source": "known_team_geo_seed_city_center_v2"
  },
  {
    "team": "Kaiserslautern",
    "aliases": [
      "1. FC Kaiserslautern"
    ],
    "city": "Kaiserslautern",
    "country": "Germany",
    "latitude": 49.4401,
    "longitude": 7.7491,
    "source": "known_team_geo_seed_city_center_v1"
  },
  {
    "team": "Kalmar FF",
    "city": "Kalmar",
    "country": "Sweden",
    "latitude": 56.6634,
    "longitude": 16.3568,
    "source": "known_team_geo_seed_city_center_v2"
  },
  {
    "team": "Kawasaki Frontale",
    "city": "Kawasaki",
    "country": "Japan",
    "latitude": 35.5308,
    "longitude": 139.7036,
    "source": "known_team_geo_seed_city_center_v2"
  },
  {
    "team": "Kifisia",
    "aliases": [
      "AE Kifisia"
    ],
    "city": "Kifisia",
    "country": "Greece",
    "latitude": 38.0746,
    "longitude": 23.8117,
    "source": "known_team_geo_seed_city_center_v2"
  },
  {
    "team": "Kilmarnock",
    "city": "Kilmarnock",
    "country": "Scotland",
    "latitude": 55.6117,
    "longitude": -4.4958,
    "source": "known_team_geo_seed_city_center_v2"
  },
  {
    "team": "Konyaspor",
    "city": "Konya",
    "country": "Turkey",
    "latitude": 37.8746,
    "longitude": 32.4932,
    "source": "known_team_geo_seed"
  },
  {
    "team": "KVC Westerlo",
    "aliases": [
      "Westerlo"
    ],
    "city": "Westerlo",
    "country": "Belgium",
    "latitude": 51.0905,
    "longitude": 4.9157,
    "source": "known_team_geo_seed_city_center_v2"
  },
  {
    "team": "Kyoto Sanga",
    "city": "Kyoto",
    "country": "Japan",
    "latitude": 35.0116,
    "longitude": 135.7681,
    "source": "known_team_geo_seed_city_center_v2"
  },
  {
    "team": "Lanús",
    "aliases": [
      "Lanus"
    ],
    "city": "Lanús",
    "country": "Argentina",
    "latitude": -34.7076,
    "longitude": -58.3916,
    "source": "known_team_geo_seed_city_center_v2"
  },
  {
    "team": "Le Mans",
    "aliases": [
      "Le Mans FC"
    ],
    "city": "Le Mans",
    "country": "France",
    "latitude": 48.0061,
    "longitude": 0.1996,
    "source": "known_team_geo_seed_city_center_v2"
  },
  {
    "team": "Lens",
    "aliases": [
      "RC Lens"
    ],
    "city": "Lens",
    "country": "France",
    "latitude": 50.4319,
    "longitude": 2.8322,
    "source": "known_team_geo_seed_city_center_v1"
  },
  {
    "team": "Levante",
    "city": "Valencia",
    "country": "Spain",
    "latitude": 39.4699,
    "longitude": -0.3763,
    "source": "known_team_geo_seed_city_center_v2"
  },
  {
    "team": "Leyton Orient",
    "city": "London",
    "country": "England",
    "latitude": 51.5607,
    "longitude": -0.0151,
    "source": "known_team_geo_seed_city_center_v1"
  },
  {
    "team": "Lincoln City",
    "city": "Lincoln",
    "country": "England",
    "latitude": 53.2307,
    "longitude": -0.5406,
    "source": "known_team_geo_seed_city_center_v1"
  },
  {
    "team": "Livingston",
    "city": "Livingston",
    "country": "Scotland",
    "latitude": 55.9029,
    "longitude": -3.5226,
    "source": "known_team_geo_seed"
  },
  {
    "team": "Lorient",
    "city": "Lorient",
    "country": "France",
    "latitude": 47.7483,
    "longitude": -3.3702,
    "source": "known_team_geo_seed_city_center_v1"
  },
  {
    "team": "Luton Town",
    "city": "Luton",
    "country": "England",
    "latitude": 51.8787,
    "longitude": -0.42,
    "source": "known_team_geo_seed_city_center_v1"
  },
  {
    "team": "Málaga",
    "aliases": [
      "Malaga"
    ],
    "city": "Málaga",
    "country": "Spain",
    "latitude": 36.7213,
    "longitude": -4.4214,
    "source": "known_team_geo_seed_city_center_v2"
  },
  {
    "team": "Mansfield Town",
    "city": "Mansfield",
    "country": "England",
    "latitude": 53.1472,
    "longitude": -1.1987,
    "source": "known_team_geo_seed_city_center_v1"
  },
  {
    "team": "Marseille",
    "aliases": [
      "Olympique Marseille",
      "OM"
    ],
    "city": "Marseille",
    "country": "France",
    "latitude": 43.2965,
    "longitude": 5.3698,
    "source": "known_team_geo_seed_city_center_v1"
  },
  {
    "team": "Metz",
    "city": "Metz",
    "country": "France",
    "latitude": 49.1193,
    "longitude": 6.1757,
    "source": "known_team_geo_seed_city_center_v1"
  },
  {
    "team": "Middlesbrough",
    "city": "Middlesbrough",
    "country": "England",
    "latitude": 54.5742,
    "longitude": -1.2348,
    "source": "known_team_geo_seed_city_center_v1"
  },
  {
    "team": "Midlands Wanderers",
    "city": "Pietermaritzburg",
    "country": "South Africa",
    "latitude": -29.6006,
    "longitude": 30.3794,
    "venue": "Harry Gwala Stadium",
    "source": "known_team_geo_seed"
  },
  {
    "team": "Milton Keynes Dons",
    "aliases": [
      "MK Dons"
    ],
    "city": "Milton Keynes",
    "country": "England",
    "latitude": 52.0406,
    "longitude": -0.7594,
    "source": "known_team_geo_seed_city_center_v1"
  },
  {
    "team": "Mito Hollyhock",
    "city": "Mito",
    "country": "Japan",
    "latitude": 36.3659,
    "longitude": 140.4714,
    "source": "known_team_geo_seed_city_center_v2"
  },
  {
    "team": "Montevideo Wanderers",
    "city": "Montevideo",
    "country": "Uruguay",
    "latitude": -34.9011,
    "longitude": -56.1645,
    "source": "known_team_geo_seed_city_center_v2"
  },
  {
    "team": "Montpellier",
    "aliases": [
      "Montpellier HSC"
    ],
    "city": "Montpellier",
    "country": "France",
    "latitude": 43.6108,
    "longitude": 3.8767,
    "source": "known_team_geo_seed_city_center_v2"
  },
  {
    "team": "Moreirense",
    "city": "Moreira de Cónegos",
    "country": "Portugal",
    "latitude": 41.3868,
    "longitude": -8.3393,
    "source": "known_team_geo_seed_city_center_v2"
  },
  {
    "team": "Motherwell",
    "city": "Motherwell",
    "country": "Scotland",
    "latitude": 55.783,
    "longitude": -3.981,
    "source": "known_team_geo_seed_city_center_v2"
  },
  {
    "team": "NAC Breda",
    "city": "Breda",
    "country": "Netherlands",
    "latitude": 51.5719,
    "longitude": 4.7683,
    "source": "known_team_geo_seed_city_center_v2"
  },
  {
    "team": "Nantes",
    "city": "Nantes",
    "country": "France",
    "latitude": 47.2184,
    "longitude": -1.5536,
    "source": "known_team_geo_seed_city_center_v1"
  },
  {
    "team": "Napoli",
    "city": "Naples",
    "country": "Italy",
    "latitude": 40.8518,
    "longitude": 14.2681,
    "source": "known_team_geo_seed_city_center_v2"
  },
  {
    "team": "NEC Nijmegen",
    "aliases": [
      "NEC"
    ],
    "city": "Nijmegen",
    "country": "Netherlands",
    "latitude": 51.8126,
    "longitude": 5.8372,
    "source": "known_team_geo_seed_city_center_v2"
  },
  {
    "team": "Neom SC",
    "city": "Tabuk",
    "country": "Saudi Arabia",
    "latitude": 28.3838,
    "longitude": 36.5662,
    "source": "known_team_geo_seed_city_center_v2"
  },
  {
    "team": "Newcastle United",
    "city": "Newcastle upon Tyne",
    "country": "England",
    "latitude": 54.9783,
    "longitude": -1.6178,
    "source": "known_team_geo_seed_city_center_v2"
  },
  {
    "team": "Newport County",
    "city": "Newport",
    "country": "Wales",
    "latitude": 51.5842,
    "longitude": -2.9977,
    "source": "known_team_geo_seed_city_center_v1"
  },
  {
    "team": "Nice",
    "aliases": [
      "OGC Nice"
    ],
    "city": "Nice",
    "country": "France",
    "latitude": 43.7102,
    "longitude": 7.262,
    "source": "known_team_geo_seed_city_center_v1"
  },
  {
    "team": "Northampton Town",
    "city": "Northampton",
    "country": "England",
    "latitude": 52.2405,
    "longitude": -0.9027,
    "source": "known_team_geo_seed_city_center_v1"
  },
  {
    "team": "Notts County",
    "city": "Nottingham",
    "country": "England",
    "latitude": 52.9548,
    "longitude": -1.1581,
    "source": "known_team_geo_seed_city_center_v1"
  },
  {
    "team": "OH Leuven",
    "aliases": [
      "Oud-Heverlee Leuven"
    ],
    "city": "Leuven",
    "country": "Belgium",
    "latitude": 50.8798,
    "longitude": 4.7005,
    "source": "known_team_geo_seed_city_center_v2"
  },
  {
    "team": "Oldham Athletic",
    "city": "Oldham",
    "country": "England",
    "latitude": 53.5409,
    "longitude": -2.1114,
    "source": "known_team_geo_seed_city_center_v1"
  },
  {
    "team": "Olympiakos Nicosia",
    "city": "Nicosia",
    "country": "Cyprus",
    "latitude": 35.1856,
    "longitude": 33.3823,
    "source": "known_team_geo_seed"
  },
  {
    "team": "Omonia Aradippou",
    "city": "Aradippou",
    "country": "Cyprus",
    "latitude": 34.9515,
    "longitude": 33.5916,
    "source": "known_team_geo_seed"
  },
  {
    "team": "Omonia Nicosia",
    "aliases": [
      "Omonia"
    ],
    "city": "Nicosia",
    "country": "Cyprus",
    "latitude": 35.1856,
    "longitude": 33.3823,
    "source": "known_team_geo_seed_city_center_v2"
  },
  {
    "team": "Osasuna",
    "city": "Pamplona",
    "country": "Spain",
    "latitude": 42.8125,
    "longitude": -1.6458,
    "source": "known_team_geo_seed_city_center_v2"
  },
  {
    "team": "Padova",
    "city": "Padua",
    "country": "Italy",
    "latitude": 45.4064,
    "longitude": 11.8768,
    "source": "known_team_geo_seed"
  },
  {
    "team": "Palermo",
    "city": "Palermo",
    "country": "Italy",
    "latitude": 38.1157,
    "longitude": 13.3615,
    "source": "known_team_geo_seed"
  },
  {
    "team": "Panetolikos",
    "city": "Agrinio",
    "country": "Greece",
    "latitude": 38.6245,
    "longitude": 21.4092,
    "source": "known_team_geo_seed_city_center_v2"
  },
  {
    "team": "Partick Thistle",
    "city": "Glasgow",
    "country": "Scotland",
    "latitude": 55.8642,
    "longitude": -4.2518,
    "source": "known_team_geo_seed"
  },
  {
    "team": "Pau",
    "aliases": [
      "Pau FC"
    ],
    "city": "Pau",
    "country": "France",
    "latitude": 43.2951,
    "longitude": -0.3708,
    "source": "known_team_geo_seed_city_center_v2"
  },
  {
    "team": "Pescara",
    "city": "Pescara",
    "country": "Italy",
    "latitude": 42.4618,
    "longitude": 14.2161,
    "source": "known_team_geo_seed"
  },
  {
    "team": "Peterborough United",
    "city": "Peterborough",
    "country": "England",
    "latitude": 52.5695,
    "longitude": -0.2405,
    "source": "known_team_geo_seed_city_center_v1"
  },
  {
    "team": "Plymouth Argyle",
    "city": "Plymouth",
    "country": "England",
    "latitude": 50.3755,
    "longitude": -4.1427,
    "source": "known_team_geo_seed_city_center_v1"
  },
  {
    "team": "Portland Timbers",
    "city": "Portland",
    "country": "United States",
    "latitude": 45.5152,
    "longitude": -122.6784,
    "source": "known_team_geo_seed_city_center_v2"
  },
  {
    "team": "PSV Eindhoven",
    "aliases": [
      "PSV"
    ],
    "city": "Eindhoven",
    "country": "Netherlands",
    "latitude": 51.4416,
    "longitude": 5.4697,
    "source": "known_team_geo_seed_city_center_v2"
  },
  {
    "team": "Queen's Park",
    "city": "Glasgow",
    "country": "Scotland",
    "latitude": 55.8642,
    "longitude": -4.2518,
    "source": "known_team_geo_seed"
  },
  {
    "team": "Queens Park Rangers",
    "aliases": [
      "QPR",
      "Queen's Park Rangers"
    ],
    "city": "London",
    "country": "England",
    "latitude": 51.5074,
    "longitude": -0.1278,
    "source": "known_team_geo_seed_city_center_v1"
  },
  {
    "team": "Racing Genk",
    "aliases": [
      "Genk"
    ],
    "city": "Genk",
    "country": "Belgium",
    "latitude": 50.965,
    "longitude": 5.5008,
    "source": "known_team_geo_seed_city_center_v2"
  },
  {
    "team": "Raith Rovers",
    "city": "Kirkcaldy",
    "country": "Scotland",
    "latitude": 56.1165,
    "longitude": -3.1599,
    "source": "known_team_geo_seed"
  },
  {
    "team": "RB Leipzig",
    "aliases": [
      "RasenBallsport Leipzig"
    ],
    "city": "Leipzig",
    "country": "Germany",
    "latitude": 51.3397,
    "longitude": 12.3731,
    "source": "known_team_geo_seed_city_center_v1"
  },
  {
    "team": "Real Salt Lake",
    "city": "Salt Lake City",
    "country": "United States",
    "latitude": 40.7608,
    "longitude": -111.891,
    "source": "known_team_geo_seed_city_center_v2"
  },
  {
    "team": "Red Star FC 93",
    "aliases": [
      "Red Star",
      "Red Star FC"
    ],
    "city": "Saint-Ouen-sur-Seine",
    "country": "France",
    "latitude": 48.9117,
    "longitude": 2.3338,
    "source": "known_team_geo_seed_city_center_v2"
  },
  {
    "team": "Remo",
    "aliases": [
      "Clube do Remo"
    ],
    "city": "Belém",
    "country": "Brazil",
    "latitude": -1.4558,
    "longitude": -48.4902,
    "source": "known_team_geo_seed_city_center_v2"
  },
  {
    "team": "Rodez Aveyron",
    "aliases": [
      "Rodez"
    ],
    "city": "Rodez",
    "country": "France",
    "latitude": 44.3494,
    "longitude": 2.575,
    "source": "known_team_geo_seed_city_center_v2"
  },
  {
    "team": "Rosenborg",
    "city": "Trondheim",
    "country": "Norway",
    "latitude": 63.4305,
    "longitude": 10.3951,
    "source": "known_team_geo_seed"
  },
  {
    "team": "Ross County",
    "city": "Dingwall",
    "country": "Scotland",
    "latitude": 57.5953,
    "longitude": -4.4272,
    "source": "known_team_geo_seed"
  },
  {
    "team": "Rotherham United",
    "city": "Rotherham",
    "country": "England",
    "latitude": 53.4326,
    "longitude": -1.3635,
    "source": "known_team_geo_seed_city_center_v1"
  },
  {
    "team": "Royal Charleroi SC",
    "aliases": [
      "Charleroi"
    ],
    "city": "Charleroi",
    "country": "Belgium",
    "latitude": 50.4108,
    "longitude": 4.4446,
    "source": "known_team_geo_seed_city_center_v2"
  },
  {
    "team": "Saint-Étienne",
    "aliases": [
      "Saint-Etienne",
      "AS Saint-Etienne",
      "AS Saint-Étienne"
    ],
    "city": "Saint-Étienne",
    "country": "France",
    "latitude": 45.4397,
    "longitude": 4.3872,
    "source": "known_team_geo_seed_city_center_v2"
  },
  {
    "team": "Sampdoria",
    "city": "Genoa",
    "country": "Italy",
    "latitude": 44.4056,
    "longitude": 8.9463,
    "source": "known_team_geo_seed"
  },
  {
    "team": "Samsunspor",
    "city": "Samsun",
    "country": "Turkey",
    "latitude": 41.2867,
    "longitude": 36.33,
    "source": "known_team_geo_seed_city_center_v2"
  },
  {
    "team": "San Jose Earthquakes",
    "city": "San Jose",
    "country": "United States",
    "latitude": 37.3382,
    "longitude": -121.8863,
    "source": "known_team_geo_seed_city_center_v2"
  },
  {
    "team": "Sanfrecce Hiroshima",
    "city": "Hiroshima",
    "country": "Japan",
    "latitude": 34.3853,
    "longitude": 132.4553,
    "source": "known_team_geo_seed_city_center_v1"
  },
  {
    "team": "Santa Clara",
    "city": "Ponta Delgada",
    "country": "Portugal",
    "latitude": 37.7412,
    "longitude": -25.6756,
    "source": "known_team_geo_seed_city_center_v2"
  },
  {
    "team": "SC Amiens",
    "aliases": [
      "Amiens",
      "Amiens SC"
    ],
    "city": "Amiens",
    "country": "France",
    "latitude": 49.8941,
    "longitude": 2.2958,
    "source": "known_team_geo_seed_city_center_v2"
  },
  {
    "team": "Schalke 04",
    "aliases": [
      "FC Schalke 04",
      "Schalke"
    ],
    "city": "Gelsenkirchen",
    "country": "Germany",
    "latitude": 51.5177,
    "longitude": 7.0857,
    "source": "known_team_geo_seed_city_center_v1"
  },
  {
    "team": "Seattle Sounders FC",
    "aliases": [
      "Seattle Sounders"
    ],
    "city": "Seattle",
    "country": "United States",
    "latitude": 47.6062,
    "longitude": -122.3321,
    "source": "known_team_geo_seed_city_center_v2"
  },
  {
    "team": "Shamrock Rovers",
    "city": "Tallaght",
    "country": "Ireland",
    "latitude": 53.2872,
    "longitude": -6.3738,
    "source": "known_team_geo_seed"
  },
  {
    "team": "Shelbourne",
    "city": "Dublin",
    "country": "Ireland",
    "latitude": 53.3498,
    "longitude": -6.2603,
    "source": "known_team_geo_seed"
  },
  {
    "team": "Shimizu S-Pulse",
    "city": "Shizuoka",
    "country": "Japan",
    "latitude": 34.9756,
    "longitude": 138.3828,
    "source": "known_team_geo_seed_city_center_v2"
  },
  {
    "team": "Shrewsbury Town",
    "city": "Shrewsbury",
    "country": "England",
    "latitude": 52.7064,
    "longitude": -2.7529,
    "source": "known_team_geo_seed_city_center_v1"
  },
  {
    "team": "Sint-Truidense",
    "aliases": [
      "STVV",
      "Sint-Truidense VV"
    ],
    "city": "Sint-Truiden",
    "country": "Belgium",
    "latitude": 50.8169,
    "longitude": 5.1864,
    "source": "known_team_geo_seed_city_center_v2"
  },
  {
    "team": "SK Brann",
    "aliases": [
      "Brann"
    ],
    "city": "Bergen",
    "country": "Norway",
    "latitude": 60.3913,
    "longitude": 5.3221,
    "source": "known_team_geo_seed_city_center_v2"
  },
  {
    "team": "Sligo",
    "aliases": [
      "Sligo Rovers"
    ],
    "city": "Sligo",
    "country": "Ireland",
    "latitude": 54.2766,
    "longitude": -8.4761,
    "source": "known_team_geo_seed"
  },
  {
    "team": "Southampton",
    "city": "Southampton",
    "country": "England",
    "latitude": 50.9097,
    "longitude": -1.4044,
    "source": "known_team_geo_seed_city_center_v1"
  },
  {
    "team": "Spezia",
    "city": "La Spezia",
    "country": "Italy",
    "latitude": 44.1025,
    "longitude": 9.8241,
    "source": "known_team_geo_seed"
  },
  {
    "team": "Sport Boys",
    "city": "Callao",
    "country": "Peru",
    "latitude": -12.0508,
    "longitude": -77.125,
    "source": "known_team_geo_seed_city_center_v2"
  },
  {
    "team": "Sporting Kansas City",
    "city": "Kansas City",
    "country": "United States",
    "latitude": 39.0997,
    "longitude": -94.5786,
    "source": "known_team_geo_seed_city_center_v2"
  },
  {
    "team": "St Johnstone",
    "city": "Perth",
    "country": "Scotland",
    "latitude": 56.3969,
    "longitude": -3.437,
    "source": "known_team_geo_seed"
  },
  {
    "team": "St Mirren",
    "city": "Paisley",
    "country": "Scotland",
    "latitude": 55.8473,
    "longitude": -4.4401,
    "source": "known_team_geo_seed_city_center_v2"
  },
  {
    "team": "Stade de Reims",
    "aliases": [
      "Reims"
    ],
    "city": "Reims",
    "country": "France",
    "latitude": 49.2583,
    "longitude": 4.0317,
    "source": "known_team_geo_seed_city_center_v2"
  },
  {
    "team": "Stade Laval",
    "aliases": [
      "Laval"
    ],
    "city": "Laval",
    "country": "France",
    "latitude": 48.0785,
    "longitude": -0.7669,
    "source": "known_team_geo_seed_city_center_v2"
  },
  {
    "team": "Stevenage",
    "city": "Stevenage",
    "country": "England",
    "latitude": 51.9038,
    "longitude": -0.1966,
    "source": "known_team_geo_seed_city_center_v1"
  },
  {
    "team": "Stockport County",
    "city": "Stockport",
    "country": "England",
    "latitude": 53.4106,
    "longitude": -2.1575,
    "source": "known_team_geo_seed_city_center_v1"
  },
  {
    "team": "Suditrol",
    "aliases": [
      "Sudtirol",
      "FC Sudtirol",
      "Südtirol",
      "FC Südtirol"
    ],
    "city": "Bolzano",
    "country": "Italy",
    "latitude": 46.4983,
    "longitude": 11.3548,
    "source": "known_team_geo_seed"
  },
  {
    "team": "Sunderland",
    "city": "Sunderland",
    "country": "England",
    "latitude": 54.9069,
    "longitude": -1.3838,
    "source": "known_team_geo_seed_city_center_v2"
  },
  {
    "team": "SV Josko Ried",
    "aliases": [
      "SV Ried"
    ],
    "city": "Ried im Innkreis",
    "country": "Austria",
    "latitude": 48.21,
    "longitude": 13.488,
    "source": "known_team_geo_seed_city_center_v2"
  },
  {
    "team": "Swansea City",
    "city": "Swansea",
    "country": "Wales",
    "latitude": 51.6214,
    "longitude": -3.9436,
    "source": "known_team_geo_seed_city_center_v1"
  },
  {
    "team": "Swindon Town",
    "city": "Swindon",
    "country": "England",
    "latitude": 51.5558,
    "longitude": -1.7797,
    "source": "known_team_geo_seed_city_center_v1"
  },
  {
    "team": "Torino",
    "city": "Turin",
    "country": "Italy",
    "latitude": 45.0703,
    "longitude": 7.6869,
    "source": "known_team_geo_seed_city_center_v2"
  },
  {
    "team": "Toronto FC",
    "city": "Toronto",
    "country": "Canada",
    "latitude": 43.6532,
    "longitude": -79.3832,
    "source": "known_team_geo_seed_city_center_v2"
  },
  {
    "team": "Trabzonspor",
    "city": "Trabzon",
    "country": "Turkey",
    "latitude": 41.0027,
    "longitude": 39.7168,
    "source": "known_team_geo_seed_city_center_v2"
  },
  {
    "team": "Tranmere Rovers",
    "city": "Birkenhead",
    "country": "England",
    "latitude": 53.3897,
    "longitude": -3.0246,
    "source": "known_team_geo_seed_city_center_v1"
  },
  {
    "team": "Troyes",
    "aliases": [
      "ESTAC Troyes"
    ],
    "city": "Troyes",
    "country": "France",
    "latitude": 48.2973,
    "longitude": 4.0744,
    "source": "known_team_geo_seed_city_center_v2"
  },
  {
    "team": "TSG Hoffenheim",
    "aliases": [
      "Hoffenheim"
    ],
    "city": "Sinsheim",
    "country": "Germany",
    "latitude": 49.2529,
    "longitude": 8.8787,
    "source": "known_team_geo_seed_city_center_v1"
  },
  {
    "team": "TSV Eintracht Braunschweig",
    "aliases": [
      "Eintracht Braunschweig",
      "Braunschweig"
    ],
    "city": "Braunschweig",
    "country": "Germany",
    "latitude": 52.2689,
    "longitude": 10.5268,
    "source": "known_team_geo_seed_city_center_v1"
  },
  {
    "team": "Udinese",
    "city": "Udine",
    "country": "Italy",
    "latitude": 46.0711,
    "longitude": 13.2346,
    "source": "known_team_geo_seed_city_center_v2"
  },
  {
    "team": "Urawa Red Diamonds",
    "aliases": [
      "Urawa Reds"
    ],
    "city": "Saitama",
    "country": "Japan",
    "latitude": 35.8617,
    "longitude": 139.6455,
    "source": "known_team_geo_seed_city_center_v2"
  },
  {
    "team": "Valencia",
    "city": "Valencia",
    "country": "Spain",
    "latitude": 39.4699,
    "longitude": -0.3763,
    "source": "known_team_geo_seed_city_center_v2"
  },
  {
    "team": "Venezia",
    "city": "Venice",
    "country": "Italy",
    "latitude": 45.4408,
    "longitude": 12.3155,
    "source": "known_team_geo_seed"
  },
  {
    "team": "VfB Stuttgart",
    "city": "Stuttgart",
    "country": "Germany",
    "latitude": 48.7758,
    "longitude": 9.1829,
    "source": "known_team_geo_seed_city_center_v1"
  },
  {
    "team": "VfL Bochum",
    "aliases": [
      "Bochum"
    ],
    "city": "Bochum",
    "country": "Germany",
    "latitude": 51.4818,
    "longitude": 7.2162,
    "source": "known_team_geo_seed_city_center_v1"
  },
  {
    "team": "Viking FK",
    "city": "Stavanger",
    "country": "Norway",
    "latitude": 58.97,
    "longitude": 5.7331,
    "source": "known_team_geo_seed"
  },
  {
    "team": "Villarreal",
    "city": "Villarreal",
    "country": "Spain",
    "latitude": 39.9383,
    "longitude": -0.1009,
    "source": "known_team_geo_seed_city_center_v2"
  },
  {
    "team": "Vissel Kobe",
    "city": "Kobe",
    "country": "Japan",
    "latitude": 34.6901,
    "longitude": 135.1955,
    "source": "known_team_geo_seed_city_center_v2"
  },
  {
    "team": "Walsall",
    "city": "Walsall",
    "country": "England",
    "latitude": 52.5862,
    "longitude": -1.9829,
    "source": "known_team_geo_seed_city_center_v1"
  },
  {
    "team": "Waterford",
    "city": "Waterford",
    "country": "Ireland",
    "latitude": 52.2593,
    "longitude": -7.1101,
    "source": "known_team_geo_seed"
  },
  {
    "team": "Watford",
    "city": "Watford",
    "country": "England",
    "latitude": 51.6565,
    "longitude": -0.3903,
    "source": "known_team_geo_seed_city_center_v1"
  },
  {
    "team": "Werder Bremen",
    "city": "Bremen",
    "country": "Germany",
    "latitude": 53.0793,
    "longitude": 8.8017,
    "source": "known_team_geo_seed_city_center_v1"
  },
  {
    "team": "West Ham United",
    "city": "London",
    "country": "England",
    "latitude": 51.5074,
    "longitude": -0.1278,
    "source": "known_team_geo_seed_city_center_v2"
  },
  {
    "team": "Wigan Athletic",
    "city": "Wigan",
    "country": "England",
    "latitude": 53.5451,
    "longitude": -2.6325,
    "source": "known_team_geo_seed_city_center_v1"
  },
  {
    "team": "Wolverhampton Wanderers",
    "aliases": [
      "Wolves"
    ],
    "city": "Wolverhampton",
    "country": "England",
    "latitude": 52.5862,
    "longitude": -2.128,
    "source": "known_team_geo_seed_city_center_v2"
  },
  {
    "team": "WSG Swarovski Tirol",
    "aliases": [
      "WSG Tirol"
    ],
    "city": "Wattens",
    "country": "Austria",
    "latitude": 47.2948,
    "longitude": 11.59,
    "source": "known_team_geo_seed_city_center_v2"
  },
  {
    "team": "Wycombe Wanderers",
    "city": "High Wycombe",
    "country": "England",
    "latitude": 51.6287,
    "longitude": -0.7482,
    "source": "known_team_geo_seed_city_center_v1"
  },
  {
    "team": "Yokohama F. Marinos",
    "aliases": [
      "Yokohama F Marinos"
    ],
    "city": "Yokohama",
    "country": "Japan",
    "latitude": 35.4437,
    "longitude": 139.638,
    "source": "known_team_geo_seed_city_center_v2"
  }
]
