[
  { "team": "Padova", "city": "Padua", "country": "Italy", "latitude": 45.4064, "longitude": 11.8768, "source": "known_team_geo_seed" },
  { "team": "Pescara", "city": "Pescara", "country": "Italy", "latitude": 42.4618, "longitude": 14.2161, "source": "known_team_geo_seed" },
  { "team": "Palermo", "city": "Palermo", "country": "Italy", "latitude": 38.1157, "longitude": 13.3615, "source": "known_team_geo_seed" },
  { "team": "Catanzaro", "city": "Catanzaro", "country": "Italy", "latitude": 38.9098, "longitude": 16.5877, "source": "known_team_geo_seed" },
  { "team": "Sampdoria", "city": "Genoa", "country": "Italy", "latitude": 44.4056, "longitude": 8.9463, "source": "known_team_geo_seed" },
  { "team": "Suditrol", "aliases": ["Sudtirol", "FC Sudtirol", "S\u00fcdtirol", "FC S\u00fcdtirol"], "city": "Bolzano", "country": "Italy", "latitude": 46.4983, "longitude": 11.3548, "source": "known_team_geo_seed" },
  { "team": "Spezia", "city": "La Spezia", "country": "Italy", "latitude": 44.1025, "longitude": 9.8241, "source": "known_team_geo_seed" },
  { "team": "Venezia", "city": "Venice", "country": "Italy", "latitude": 45.4408, "longitude": 12.3155, "source": "known_team_geo_seed" },

  { "team": "Livingston", "city": "Livingston", "country": "Scotland", "latitude": 55.9029, "longitude": -3.5226, "source": "known_team_geo_seed" },
  { "team": "Aberdeen", "city": "Aberdeen", "country": "Scotland", "latitude": 57.1497, "longitude": -2.0943, "source": "known_team_geo_seed" },
  { "team": "Ayr United", "city": "Ayr", "country": "Scotland", "latitude": 55.4586, "longitude": -4.6292, "source": "known_team_geo_seed" },
  { "team": "St Johnstone", "city": "Perth", "country": "Scotland", "latitude": 56.3969, "longitude": -3.437, "source": "known_team_geo_seed" },
  { "team": "Dunfermline Athletic", "city": "Dunfermline", "country": "Scotland", "latitude": 56.0717, "longitude": -3.4521, "source": "known_team_geo_seed" },
  { "team": "Arbroath", "city": "Arbroath", "country": "Scotland", "latitude": 56.5591, "longitude": -2.5869, "source": "known_team_geo_seed" },
  { "team": "Greenock Morton", "city": "Greenock", "country": "Scotland", "latitude": 55.9565, "longitude": -4.77198, "source": "known_team_geo_seed" },
  { "team": "Airdrieonians", "city": "Airdrie", "country": "Scotland", "latitude": 55.866, "longitude": -3.9803, "source": "known_team_geo_seed" },
  { "team": "Partick Thistle", "city": "Glasgow", "country": "Scotland", "latitude": 55.8642, "longitude": -4.2518, "source": "known_team_geo_seed" },
  { "team": "Queen's Park", "city": "Glasgow", "country": "Scotland", "latitude": 55.8642, "longitude": -4.2518, "source": "known_team_geo_seed" },
  { "team": "Raith Rovers", "city": "Kirkcaldy", "country": "Scotland", "latitude": 56.1165, "longitude": -3.1599, "source": "known_team_geo_seed" },
  { "team": "Ross County", "city": "Dingwall", "country": "Scotland", "latitude": 57.5953, "longitude": -4.4272, "source": "known_team_geo_seed" },

  { "team": "Akritas Chlorakas", "city": "Chloraka", "country": "Cyprus", "latitude": 34.796, "longitude": 32.407, "source": "known_team_geo_seed" },
  { "team": "Ethnikos Achnas", "city": "Dasaki Achnas", "country": "Cyprus", "latitude": 35.046, "longitude": 33.786, "source": "known_team_geo_seed" },
  { "team": "Olympiakos Nicosia", "city": "Nicosia", "country": "Cyprus", "latitude": 35.1856, "longitude": 33.3823, "source": "known_team_geo_seed" },
  { "team": "Omonia Aradippou", "city": "Aradippou", "country": "Cyprus", "latitude": 34.9515, "longitude": 33.5916, "source": "known_team_geo_seed" },

  { "team": "Konyaspor", "city": "Konya", "country": "Turkey", "latitude": 37.8746, "longitude": 32.4932, "source": "known_team_geo_seed" },
  { "team": "Gaziantep FK", "city": "Gaziantep", "country": "Turkey", "latitude": 37.0662, "longitude": 37.3833, "source": "known_team_geo_seed" },
  { "team": "Besiktas", "aliases": ["Besiktas JK", "Be\u015fikta\u015f", "Be\u015fikta\u015f JK"], "city": "Istanbul", "country": "Turkey", "latitude": 41.0422, "longitude": 29.0094, "source": "known_team_geo_seed" },

  { "team": "FC Nordsjaelland", "aliases": ["FC Nordsj\u00e6lland", "Nordsjaelland", "Nordsj\u00e6lland"], "city": "Farum", "country": "Denmark", "latitude": 55.8085, "longitude": 12.3608, "source": "known_team_geo_seed" },
  { "team": "Viking FK", "city": "Stavanger", "country": "Norway", "latitude": 58.97, "longitude": 5.7331, "source": "known_team_geo_seed" },
  { "team": "Rosenborg", "city": "Trondheim", "country": "Norway", "latitude": 63.4305, "longitude": 10.3951, "source": "known_team_geo_seed" },

  { "team": "Drogheda Utd", "aliases": ["Drogheda United"], "city": "Drogheda", "country": "Ireland", "latitude": 53.7179, "longitude": -6.3561, "source": "known_team_geo_seed" },
  { "team": "Sligo", "aliases": ["Sligo Rovers"], "city": "Sligo", "country": "Ireland", "latitude": 54.2766, "longitude": -8.4761, "source": "known_team_geo_seed" },
  { "team": "Dundalk", "city": "Dundalk", "country": "Ireland", "latitude": 54.0, "longitude": -6.4167, "source": "known_team_geo_seed" },
  { "team": "Shelbourne", "city": "Dublin", "country": "Ireland", "latitude": 53.3498, "longitude": -6.2603, "source": "known_team_geo_seed" },
  { "team": "Galway Utd", "aliases": ["Galway United"], "city": "Galway", "country": "Ireland", "latitude": 53.2707, "longitude": -9.0568, "source": "known_team_geo_seed" },
  { "team": "Bohemians", "city": "Dublin", "country": "Ireland", "latitude": 53.3498, "longitude": -6.2603, "source": "known_team_geo_seed" },
  { "team": "Derry City", "city": "Derry", "country": "Northern Ireland", "latitude": 54.9966, "longitude": -7.3086, "source": "known_team_geo_seed" },
  { "team": "Shamrock Rovers", "city": "Tallaght", "country": "Ireland", "latitude": 53.2872, "longitude": -6.3738, "source": "known_team_geo_seed" },
  { "team": "Waterford", "city": "Waterford", "country": "Ireland", "latitude": 52.2593, "longitude": -7.1101, "source": "known_team_geo_seed" },

  { "team": "Casric Stars", "city": "KwaMhlanga", "country": "South Africa", "latitude": -25.429, "longitude": 28.713, "venue": "Solomon Mahlangu Stadium", "source": "known_team_geo_seed" },
  { "team": "Highbury", "aliases": ["Highbury FC"], "city": "Gqeberha", "country": "South Africa", "latitude": -33.9608, "longitude": 25.6022, "source": "known_team_geo_seed" },
  { "team": "Midlands Wanderers", "city": "Pietermaritzburg", "country": "South Africa", "latitude": -29.6006, "longitude": 30.3794, "venue": "Harry Gwala Stadium", "source": "known_team_geo_seed" }
]