[
  {
    "team": "1. FC Heidenheim 1846",
    "aliases": [
      "Heidenheim",
      "1. FC Heidenheim"
    ],
    "city": "Heidenheim an der Brenz",
    "country": "Germany",
    "latitude": 48.6761,
    "longitude": 10.1543,
    "source": "known_team_geo_seed_city_center_v1"
  },
  {
    "team": "1. FC Magdeburg",
    "aliases": [
      "Magdeburg"
    ],
    "city": "Magdeburg",
    "country": "Germany",
    "latitude": 52.1205,
    "longitude": 11.6276,
    "source": "known_team_geo_seed_city_center_v4"
  },
  {
    "team": "1. FC Nürnberg",
    "aliases": [
      "1. FC Nurnberg",
      "1. FC NΓΌrnberg",
      "Nürnberg",
      "Nurnberg"
    ],
    "city": "Nuremberg",
    "country": "Germany",
    "latitude": 49.4521,
    "longitude": 11.0767,
    "source": "known_team_geo_seed_city_center_v4"
  },
  {
    "team": "1. FC Union Berlin",
    "aliases": [
      "Union Berlin",
      "FC Union Berlin"
    ],
    "city": "Berlin",
    "country": "Germany",
    "latitude": 52.52,
    "longitude": 13.405,
    "source": "known_team_geo_seed_city_center_v1"
  },
  {
    "team": "Aalesund",
    "aliases": [
      "Aalesunds FK",
      "Ålesund"
    ],
    "city": "Ålesund",
    "country": "Norway",
    "latitude": 62.4722,
    "longitude": 6.1495,
    "source": "known_team_geo_seed_city_center_v3"
  },
  {
    "team": "Aberdeen",
    "city": "Aberdeen",
    "country": "Scotland",
    "latitude": 57.1497,
    "longitude": -2.0943,
    "source": "known_team_geo_seed"
  },
  {
    "team": "AC Milan",
    "aliases": [
      "Milan"
    ],
    "city": "Milan",
    "country": "Italy",
    "latitude": 45.4642,
    "longitude": 9.19,
    "source": "known_team_geo_seed_city_center_v4"
  },
  {
    "team": "Accrington Stanley",
    "city": "Accrington",
    "country": "England",
    "latitude": 53.7535,
    "longitude": -2.3586,
    "source": "known_team_geo_seed_city_center_v1"
  },
  {
    "team": "ADT",
    "aliases": [
      "ADT Tarma"
    ],
    "city": "Tarma",
    "country": "Peru",
    "latitude": -11.4197,
    "longitude": -75.6908,
    "source": "known_team_geo_seed_city_center_v2"
  },
  {
    "team": "AEK Athens",
    "aliases": [
      "AEK"
    ],
    "city": "Athens",
    "country": "Greece",
    "latitude": 37.9838,
    "longitude": 23.7275,
    "source": "known_team_geo_seed_city_center_v3"
  },
  {
    "team": "AEK Larnaca",
    "city": "Larnaca",
    "country": "Cyprus",
    "latitude": 34.9003,
    "longitude": 33.6232,
    "source": "known_team_geo_seed_city_center_v3"
  },
  {
    "team": "AEL",
    "aliases": [
      "AEL Limassol"
    ],
    "city": "Limassol",
    "country": "Cyprus",
    "latitude": 34.7071,
    "longitude": 33.0226,
    "source": "known_team_geo_seed_city_center_v2"
  },
  {
    "team": "AFC Wimbledon",
    "aliases": [
      "Wimbledon"
    ],
    "city": "London",
    "country": "England",
    "latitude": 51.4214,
    "longitude": -0.2064,
    "source": "known_team_geo_seed_city_center_v1"
  },
  {
    "team": "AGF",
    "aliases": [
      "Aarhus GF"
    ],
    "city": "Aarhus",
    "country": "Denmark",
    "latitude": 56.1629,
    "longitude": 10.2039,
    "source": "known_team_geo_seed_city_center_v3"
  },
  {
    "team": "Águilas Doradas",
    "aliases": [
      "Aguilas Doradas"
    ],
    "city": "Rionegro",
    "country": "Colombia",
    "latitude": 6.1536,
    "longitude": -75.3743,
    "source": "known_team_geo_seed_city_center_v3"
  },
  {
    "team": "AIK",
    "city": "Solna",
    "country": "Sweden",
    "latitude": 59.3689,
    "longitude": 18.0084,
    "source": "known_team_geo_seed_city_center_v3"
  },
  {
    "team": "Airdrieonians",
    "city": "Airdrie",
    "country": "Scotland",
    "latitude": 55.866,
    "longitude": -3.9803,
    "source": "known_team_geo_seed"
  },
  {
    "team": "AJ Auxerre",
    "aliases": [
      "Auxerre"
    ],
    "city": "Auxerre",
    "country": "France",
    "latitude": 47.7982,
    "longitude": 3.5738,
    "source": "known_team_geo_seed_city_center_v4"
  },
  {
    "team": "Ajax Amsterdam",
    "aliases": [
      "Ajax"
    ],
    "city": "Amsterdam",
    "country": "Netherlands",
    "latitude": 52.3676,
    "longitude": 4.9041,
    "source": "known_team_geo_seed_city_center_v2"
  },
  {
    "team": "Akritas Chlorakas",
    "city": "Chloraka",
    "country": "Cyprus",
    "latitude": 34.796,
    "longitude": 32.407,
    "source": "known_team_geo_seed"
  },
  {
    "team": "Al Ahli",
    "aliases": [
      "Al Ahli Saudi"
    ],
    "city": "Jeddah",
    "country": "Saudi Arabia",
    "latitude": 21.4858,
    "longitude": 39.1925,
    "source": "known_team_geo_seed_city_center_v3"
  },
  {
    "team": "Al Fateh",
    "city": "Al-Hasa",
    "country": "Saudi Arabia",
    "latitude": 25.3833,
    "longitude": 49.5833,
    "source": "known_team_geo_seed_city_center_v2"
  },
  {
    "team": "Al Hazem",
    "city": "Ar Rass",
    "country": "Saudi Arabia",
    "latitude": 25.8694,
    "longitude": 43.4973,
    "source": "known_team_geo_seed_city_center_v2"
  },
  {
    "team": "Al Hilal",
    "city": "Riyadh",
    "country": "Saudi Arabia",
    "latitude": 24.7136,
    "longitude": 46.6753,
    "source": "known_team_geo_seed_city_center_v2"
  },
  {
    "team": "Al Khaleej",
    "city": "Saihat",
    "country": "Saudi Arabia",
    "latitude": 26.475,
    "longitude": 50.0417,
    "source": "known_team_geo_seed_city_center_v2"
  },
  {
    "team": "Al Nassr",
    "city": "Riyadh",
    "country": "Saudi Arabia",
    "latitude": 24.7136,
    "longitude": 46.6753,
    "source": "known_team_geo_seed_city_center_v4"
  },
  {
    "team": "Al Okhdood",
    "city": "Najran",
    "country": "Saudi Arabia",
    "latitude": 17.5656,
    "longitude": 44.2289,
    "source": "known_team_geo_seed_city_center_v4"
  },
  {
    "team": "Al Qadsiah",
    "aliases": [
      "Al Qadisiyah"
    ],
    "city": "Khobar",
    "country": "Saudi Arabia",
    "latitude": 26.2172,
    "longitude": 50.1971,
    "source": "known_team_geo_seed_city_center_v4"
  },
  {
    "team": "Al Shabab",
    "city": "Riyadh",
    "country": "Saudi Arabia",
    "latitude": 24.7136,
    "longitude": 46.6753,
    "source": "known_team_geo_seed_city_center_v3"
  },
  {
    "team": "Al Taawoun",
    "city": "Buraydah",
    "country": "Saudi Arabia",
    "latitude": 26.3592,
    "longitude": 43.9818,
    "source": "known_team_geo_seed_city_center_v3"
  },
  {
    "team": "Alanyaspor",
    "city": "Alanya",
    "country": "Turkey",
    "latitude": 36.5444,
    "longitude": 31.9954,
    "source": "known_team_geo_seed_city_center_v3"
  },
  {
    "team": "Alavés",
    "aliases": [
      "Alaves",
      "Deportivo Alaves"
    ],
    "city": "Vitoria-Gasteiz",
    "country": "Spain",
    "latitude": 42.8467,
    "longitude": -2.6716,
    "source": "known_team_geo_seed_city_center_v2"
  },
  {
    "team": "Aldosivi",
    "city": "Mar del Plata",
    "country": "Argentina",
    "latitude": -38.0055,
    "longitude": -57.5426,
    "source": "known_team_geo_seed_city_center_v3"
  },
  {
    "team": "Alianza FC",
    "city": "Valledupar",
    "country": "Colombia",
    "latitude": 10.4631,
    "longitude": -73.2532,
    "source": "known_team_geo_seed_city_center_v3"
  },
  {
    "team": "Alianza Lima",
    "city": "Lima",
    "country": "Peru",
    "latitude": -12.0464,
    "longitude": -77.0428,
    "source": "known_team_geo_seed_city_center_v4"
  },
  {
    "team": "Alverca",
    "aliases": [
      "FC Alverca"
    ],
    "city": "Alverca do Ribatejo",
    "country": "Portugal",
    "latitude": 38.8987,
    "longitude": -9.0386,
    "source": "known_team_geo_seed_city_center_v2"
  },
  {
    "team": "Anderlecht",
    "city": "Brussels",
    "country": "Belgium",
    "latitude": 50.8503,
    "longitude": 4.3517,
    "source": "known_team_geo_seed_city_center_v4"
  },
  {
    "team": "Angers",
    "aliases": [
      "Angers SCO"
    ],
    "city": "Angers",
    "country": "France",
    "latitude": 47.4784,
    "longitude": -0.5632,
    "source": "known_team_geo_seed_city_center_v4"
  },
  {
    "team": "Annecy",
    "city": "Annecy",
    "country": "France",
    "latitude": 45.8992,
    "longitude": 6.1294,
    "source": "known_team_geo_seed_city_center_v1"
  },
  {
    "team": "Anorthosis",
    "aliases": [
      "Anorthosis Famagusta"
    ],
    "city": "Larnaca",
    "country": "Cyprus",
    "latitude": 34.9003,
    "longitude": 33.6232,
    "source": "known_team_geo_seed_city_center_v2"
  },
  {
    "team": "Antalyaspor",
    "city": "Antalya",
    "country": "Turkey",
    "latitude": 36.8969,
    "longitude": 30.7133,
    "source": "known_team_geo_seed_city_center_v3"
  },
  {
    "team": "Antwerp",
    "aliases": [
      "Royal Antwerp"
    ],
    "city": "Antwerp",
    "country": "Belgium",
    "latitude": 51.2194,
    "longitude": 4.4025,
    "source": "known_team_geo_seed_city_center_v4"
  },
  {
    "team": "Apoel Nicosia",
    "aliases": [
      "APOEL"
    ],
    "city": "Nicosia",
    "country": "Cyprus",
    "latitude": 35.1856,
    "longitude": 33.3823,
    "source": "known_team_geo_seed_city_center_v3"
  },
  {
    "team": "Apollon Limassol",
    "city": "Limassol",
    "country": "Cyprus",
    "latitude": 34.7071,
    "longitude": 33.0226,
    "source": "known_team_geo_seed_city_center_v3"
  },
  {
    "team": "Arbroath",
    "city": "Arbroath",
    "country": "Scotland",
    "latitude": 56.5591,
    "longitude": -2.5869,
    "source": "known_team_geo_seed"
  },
  {
    "team": "Argentinos Juniors",
    "city": "Buenos Aires",
    "country": "Argentina",
    "latitude": -34.6037,
    "longitude": -58.3816,
    "source": "known_team_geo_seed_city_center_v3"
  },
  {
    "team": "Aris",
    "aliases": [
      "Aris Thessaloniki"
    ],
    "city": "Thessaloniki",
    "country": "Greece",
    "latitude": 40.6401,
    "longitude": 22.9444,
    "source": "known_team_geo_seed_city_center_v4"
  },
  {
    "team": "Aris Limassol",
    "city": "Limassol",
    "country": "Cyprus",
    "latitude": 34.7071,
    "longitude": 33.0226,
    "source": "known_team_geo_seed_city_center_v2"
  },
  {
    "team": "Arminia Bielefeld",
    "city": "Bielefeld",
    "country": "Germany",
    "latitude": 52.0302,
    "longitude": 8.5325,
    "source": "known_team_geo_seed_city_center_v1"
  },
  {
    "team": "Arouca",
    "city": "Arouca",
    "country": "Portugal",
    "latitude": 40.9306,
    "longitude": -8.2453,
    "source": "known_team_geo_seed_city_center_v2"
  },
  {
    "team": "AS Monaco",
    "aliases": [
      "Monaco"
    ],
    "city": "Monaco",
    "country": "Monaco",
    "latitude": 43.7384,
    "longitude": 7.4246,
    "source": "known_team_geo_seed_city_center_v1"
  },
  {
    "team": "AS Nancy Lorraine",
    "aliases": [
      "Nancy"
    ],
    "city": "Nancy",
    "country": "France",
    "latitude": 48.6921,
    "longitude": 6.1844,
    "source": "known_team_geo_seed_city_center_v2"
  },
  {
    "team": "Aston Villa",
    "city": "Birmingham",
    "country": "England",
    "latitude": 52.4862,
    "longitude": -1.8904,
    "source": "known_team_geo_seed_city_center_v4"
  },
  {
    "team": "Athletic Club",
    "aliases": [
      "Athletic Bilbao"
    ],
    "city": "Bilbao",
    "country": "Spain",
    "latitude": 43.263,
    "longitude": -2.935,
    "source": "known_team_geo_seed_city_center_v2"
  },
  {
    "team": "Athletico-PR",
    "aliases": [
      "Athletico Paranaense"
    ],
    "city": "Curitiba",
    "country": "Brazil",
    "latitude": -25.4284,
    "longitude": -49.2733,
    "source": "known_team_geo_seed_city_center_v4"
  },
  {
    "team": "Atlanta United FC",
    "aliases": [
      "Atlanta United"
    ],
    "city": "Atlanta",
    "country": "United States",
    "latitude": 33.749,
    "longitude": -84.388,
    "source": "known_team_geo_seed_city_center_v3"
  },
  {
    "team": "Atlas",
    "city": "Guadalajara",
    "country": "Mexico",
    "latitude": 20.6597,
    "longitude": -103.3496,
    "source": "known_team_geo_seed_city_center_v4"
  },
  {
    "team": "Atlético Nacional",
    "aliases": [
      "Atletico Nacional"
    ],
    "city": "Medellín",
    "country": "Colombia",
    "latitude": 6.2442,
    "longitude": -75.5812,
    "source": "known_team_geo_seed_city_center_v1"
  },
  {
    "team": "Atlético-MG",
    "aliases": [
      "Atletico-MG",
      "AtlΓ©tico-MG",
      "Atlético Mineiro",
      "Atletico Mineiro"
    ],
    "city": "Belo Horizonte",
    "country": "Brazil",
    "latitude": -19.9167,
    "longitude": -43.9345,
    "source": "known_team_geo_seed_city_center_v4"
  },
  {
    "team": "AVS",
    "aliases": [
      "AVS Futebol SAD"
    ],
    "city": "Vila das Aves",
    "country": "Portugal",
    "latitude": 41.3703,
    "longitude": -8.41,
    "source": "known_team_geo_seed_city_center_v2"
  },
  {
    "team": "Ayr United",
    "city": "Ayr",
    "country": "Scotland",
    "latitude": 55.4586,
    "longitude": -4.6292,
    "source": "known_team_geo_seed"
  },
  {
    "team": "AZ Alkmaar",
    "aliases": [
      "AZ"
    ],
    "city": "Alkmaar",
    "country": "Netherlands",
    "latitude": 52.6324,
    "longitude": 4.7534,
    "source": "known_team_geo_seed_city_center_v4"
  },
  {
    "team": "Bahia",
    "aliases": [
      "EC Bahia"
    ],
    "city": "Salvador",
    "country": "Brazil",
    "latitude": -12.9777,
    "longitude": -38.5016,
    "source": "known_team_geo_seed_city_center_v3"
  },
  {
    "team": "Banfield",
    "city": "Banfield",
    "country": "Argentina",
    "latitude": -34.7446,
    "longitude": -58.3955,
    "source": "known_team_geo_seed_city_center_v2"
  },
  {
    "team": "Barnet",
    "city": "London",
    "country": "England",
    "latitude": 51.6538,
    "longitude": -0.2,
    "source": "known_team_geo_seed_city_center_v1"
  },
  {
    "team": "Barnsley",
    "city": "Barnsley",
    "country": "England",
    "latitude": 53.5526,
    "longitude": -1.4797,
    "source": "known_team_geo_seed_city_center_v1"
  },
  {
    "team": "Barracas Central",
    "city": "Buenos Aires",
    "country": "Argentina",
    "latitude": -34.6037,
    "longitude": -58.3816,
    "source": "known_team_geo_seed_city_center_v2"
  },
  {
    "team": "Barrow",
    "city": "Barrow-in-Furness",
    "country": "England",
    "latitude": 54.1109,
    "longitude": -3.2276,
    "source": "known_team_geo_seed_city_center_v1"
  },
  {
    "team": "Bastia",
    "aliases": [
      "SC Bastia"
    ],
    "city": "Bastia",
    "country": "France",
    "latitude": 42.6973,
    "longitude": 9.4509,
    "source": "known_team_geo_seed_city_center_v2"
  },
  {
    "team": "Belgrano (Córdoba)",
    "aliases": [
      "Belgrano",
      "Belgrano Cordoba"
    ],
    "city": "Córdoba",
    "country": "Argentina",
    "latitude": -31.4201,
    "longitude": -64.1888,
    "source": "known_team_geo_seed_city_center_v3"
  },
  {
    "team": "Benfica",
    "aliases": [
      "SL Benfica"
    ],
    "city": "Lisbon",
    "country": "Portugal",
    "latitude": 38.7223,
    "longitude": -9.1393,
    "source": "known_team_geo_seed_city_center_v2"
  },
  {
    "team": "Besiktas",
    "aliases": [
      "Besiktas JK",
      "Beşiktaş",
      "Beşiktaş JK"
    ],
    "city": "Istanbul",
    "country": "Turkey",
    "latitude": 41.0422,
    "longitude": 29.0094,
    "source": "known_team_geo_seed"
  },
  {
    "team": "Blackpool",
    "city": "Blackpool",
    "country": "England",
    "latitude": 53.8175,
    "longitude": -3.0357,
    "source": "known_team_geo_seed_city_center_v1"
  },
  {
    "team": "Boca Juniors",
    "city": "Buenos Aires",
    "country": "Argentina",
    "latitude": -34.6037,
    "longitude": -58.3816,
    "source": "known_team_geo_seed_city_center_v2"
  },
  {
    "team": "Bohemians",
    "city": "Dublin",
    "country": "Ireland",
    "latitude": 53.3498,
    "longitude": -6.2603,
    "source": "known_team_geo_seed"
  },
  {
    "team": "Bologna",
    "city": "Bologna",
    "country": "Italy",
    "latitude": 44.4949,
    "longitude": 11.3426,
    "source": "known_team_geo_seed_city_center_v4"
  },
  {
    "team": "Bolton Wanderers",
    "city": "Bolton",
    "country": "England",
    "latitude": 53.5769,
    "longitude": -2.4282,
    "source": "known_team_geo_seed_city_center_v1"
  },
  {
    "team": "Boreham Wood",
    "city": "Borehamwood",
    "country": "England",
    "latitude": 51.6578,
    "longitude": -0.2723,
    "source": "known_team_geo_seed_city_center_v4"
  },
  {
    "team": "Borussia Dortmund",
    "aliases": [
      "Dortmund"
    ],
    "city": "Dortmund",
    "country": "Germany",
    "latitude": 51.5136,
    "longitude": 7.4653,
    "source": "known_team_geo_seed_city_center_v4"
  },
  {
    "team": "Borussia Mönchengladbach",
    "aliases": [
      "Borussia Monchengladbach",
      "Borussia MΓ¶nchengladbach",
      "Mönchengladbach"
    ],
    "city": "Mönchengladbach",
    "country": "Germany",
    "latitude": 51.1805,
    "longitude": 6.4428,
    "source": "known_team_geo_seed_city_center_v4"
  },
  {
    "team": "Boston River",
    "city": "Montevideo",
    "country": "Uruguay",
    "latitude": -34.9011,
    "longitude": -56.1645,
    "source": "known_team_geo_seed_city_center_v3"
  },
  {
    "team": "Botafogo",
    "city": "Rio de Janeiro",
    "country": "Brazil",
    "latitude": -22.9068,
    "longitude": -43.1729,
    "source": "known_team_geo_seed_city_center_v2"
  },
  {
    "team": "Boulogne",
    "aliases": [
      "US Boulogne"
    ],
    "city": "Boulogne-sur-Mer",
    "country": "France",
    "latitude": 50.7252,
    "longitude": 1.6133,
    "source": "known_team_geo_seed_city_center_v1"
  },
  {
    "team": "Bradford City",
    "city": "Bradford",
    "country": "England",
    "latitude": 53.795,
    "longitude": -1.7594,
    "source": "known_team_geo_seed_city_center_v1"
  },
  {
    "team": "Braga",
    "aliases": [
      "SC Braga"
    ],
    "city": "Braga",
    "country": "Portugal",
    "latitude": 41.5454,
    "longitude": -8.4265,
    "source": "known_team_geo_seed_city_center_v4"
  },
  {
    "team": "Brentford",
    "city": "London",
    "country": "England",
    "latitude": 51.4865,
    "longitude": -0.289,
    "source": "known_team_geo_seed_city_center_v2"
  },
  {
    "team": "Brest",
    "aliases": [
      "Stade Brestois"
    ],
    "city": "Brest",
    "country": "France",
    "latitude": 48.3904,
    "longitude": -4.4861,
    "source": "known_team_geo_seed_city_center_v4"
  },
  {
    "team": "Brighton & Hove Albion",
    "aliases": [
      "Brighton"
    ],
    "city": "Brighton and Hove",
    "country": "England",
    "latitude": 50.8225,
    "longitude": -0.1372,
    "source": "known_team_geo_seed_city_center_v2"
  },
  {
    "team": "Bristol City",
    "city": "Bristol",
    "country": "England",
    "latitude": 51.4545,
    "longitude": -2.5879,
    "source": "known_team_geo_seed_city_center_v1"
  },
  {
    "team": "Bristol Rovers",
    "city": "Bristol",
    "country": "England",
    "latitude": 51.4545,
    "longitude": -2.5879,
    "source": "known_team_geo_seed_city_center_v1"
  },
  {
    "team": "Bromley",
    "city": "London",
    "country": "England",
    "latitude": 51.406,
    "longitude": 0.0132,
    "source": "known_team_geo_seed_city_center_v1"
  },
  {
    "team": "Bucaramanga",
    "aliases": [
      "Atlético Bucaramanga"
    ],
    "city": "Bucaramanga",
    "country": "Colombia",
    "latitude": 7.1193,
    "longitude": -73.1227,
    "source": "known_team_geo_seed_city_center_v3"
  },
  {
    "team": "Burgos",
    "city": "Burgos",
    "country": "Spain",
    "latitude": 42.3439,
    "longitude": -3.6969,
    "source": "known_team_geo_seed_city_center_v4"
  },
  {
    "team": "Burton Albion",
    "city": "Burton upon Trent",
    "country": "England",
    "latitude": 52.8073,
    "longitude": -1.6426,
    "source": "known_team_geo_seed_city_center_v1"
  },
  {
    "team": "C.D. Nacional",
    "aliases": [
      "Nacional"
    ],
    "city": "Funchal",
    "country": "Portugal",
    "latitude": 32.6669,
    "longitude": -16.9241,
    "source": "known_team_geo_seed_city_center_v2"
  },
  {
    "team": "Cádiz",
    "aliases": [
      "Cadiz"
    ],
    "city": "Cádiz",
    "country": "Spain",
    "latitude": 36.5271,
    "longitude": -6.2886,
    "source": "known_team_geo_seed_city_center_v2"
  },
  {
    "team": "Cagliari",
    "city": "Cagliari",
    "country": "Italy",
    "latitude": 39.2238,
    "longitude": 9.1217,
    "source": "known_team_geo_seed_city_center_v4"
  },
  {
    "team": "Cambridge United",
    "city": "Cambridge",
    "country": "England",
    "latitude": 52.2053,
    "longitude": 0.1218,
    "source": "known_team_geo_seed_city_center_v1"
  },
  {
    "team": "Cape Town City",
    "city": "Cape Town",
    "country": "South Africa",
    "latitude": -33.9249,
    "longitude": 18.4241,
    "source": "known_team_geo_seed_city_center_v4"
  },
  {
    "team": "Carlisle United",
    "city": "Carlisle",
    "country": "England",
    "latitude": 54.8925,
    "longitude": -2.9329,
    "source": "known_team_geo_seed_city_center_v4"
  },
  {
    "team": "Casa Pia",
    "city": "Lisbon",
    "country": "Portugal",
    "latitude": 38.7223,
    "longitude": -9.1393,
    "source": "known_team_geo_seed_city_center_v4"
  },
  {
    "team": "Casric Stars",
    "city": "KwaMhlanga",
    "country": "South Africa",
    "latitude": -25.429,
    "longitude": 28.713,
    "venue": "Solomon Mahlangu Stadium",
    "source": "known_team_geo_seed"
  },
  {
    "team": "Castellón",
    "aliases": [
      "Castellon"
    ],
    "city": "Castellón de la Plana",
    "country": "Spain",
    "latitude": 39.9864,
    "longitude": -0.0513,
    "source": "known_team_geo_seed_city_center_v2"
  },
  {
    "team": "Catanzaro",
    "city": "Catanzaro",
    "country": "Italy",
    "latitude": 38.9098,
    "longitude": 16.5877,
    "source": "known_team_geo_seed"
  },
  {
    "team": "Celtic",
    "city": "Glasgow",
    "country": "Scotland",
    "latitude": 55.8642,
    "longitude": -4.2518,
    "source": "known_team_geo_seed_city_center_v4"
  },
  {
    "team": "Central Córdoba (Santiago del Estero)",
    "aliases": [
      "Central Cordoba",
      "Central Córdoba"
    ],
    "city": "Santiago del Estero",
    "country": "Argentina",
    "latitude": -27.7951,
    "longitude": -64.2615,
    "source": "known_team_geo_seed_city_center_v2"
  },
  {
    "team": "Central Español Fútbol Club",
    "aliases": [
      "Central Espanol",
      "Central Español"
    ],
    "city": "Montevideo",
    "country": "Uruguay",
    "latitude": -34.9011,
    "longitude": -56.1645,
    "source": "known_team_geo_seed_city_center_v3"
  },
  {
    "team": "Cerezo Osaka",
    "city": "Osaka",
    "country": "Japan",
    "latitude": 34.6937,
    "longitude": 135.5023,
    "source": "known_team_geo_seed_city_center_v3"
  },
  {
    "team": "Cerro",
    "city": "Montevideo",
    "country": "Uruguay",
    "latitude": -34.9011,
    "longitude": -56.1645,
    "source": "known_team_geo_seed_city_center_v2"
  },
  {
    "team": "Cerro Largo",
    "city": "Melo",
    "country": "Uruguay",
    "latitude": -32.3667,
    "longitude": -54.1833,
    "source": "known_team_geo_seed_city_center_v3"
  },
  {
    "team": "Ceuta",
    "city": "Ceuta",
    "country": "Spain",
    "latitude": 35.8894,
    "longitude": -5.3213,
    "source": "known_team_geo_seed_city_center_v4"
  },
  {
    "team": "CF Montréal",
    "aliases": [
      "CF Montreal",
      "Montreal Impact"
    ],
    "city": "Montreal",
    "country": "Canada",
    "latitude": 45.5019,
    "longitude": -73.5674,
    "source": "known_team_geo_seed_city_center_v3"
  },
  {
    "team": "Charlotte FC",
    "city": "Charlotte",
    "country": "United States",
    "latitude": 35.2271,
    "longitude": -80.8431,
    "source": "known_team_geo_seed_city_center_v3"
  },
  {
    "team": "Cheltenham Town",
    "city": "Cheltenham",
    "country": "England",
    "latitude": 51.8994,
    "longitude": -2.0783,
    "source": "known_team_geo_seed_city_center_v1"
  },
  {
    "team": "Chesterfield",
    "city": "Chesterfield",
    "country": "England",
    "latitude": 53.235,
    "longitude": -1.4216,
    "source": "known_team_geo_seed_city_center_v1"
  },
  {
    "team": "Chicago Fire FC",
    "aliases": [
      "Chicago Fire"
    ],
    "city": "Chicago",
    "country": "United States",
    "latitude": 41.8781,
    "longitude": -87.6298,
    "source": "known_team_geo_seed_city_center_v3"
  },
  {
    "team": "Cienciano del Cusco",
    "aliases": [
      "Cienciano"
    ],
    "city": "Cusco",
    "country": "Peru",
    "latitude": -13.5319,
    "longitude": -71.9675,
    "source": "known_team_geo_seed_city_center_v4"
  },
  {
    "team": "Clermont Foot",
    "aliases": [
      "Clermont"
    ],
    "city": "Clermont-Ferrand",
    "country": "France",
    "latitude": 45.7772,
    "longitude": 3.087,
    "source": "known_team_geo_seed_city_center_v2"
  },
  {
    "team": "Colorado Rapids",
    "city": "Commerce City",
    "country": "United States",
    "latitude": 39.8083,
    "longitude": -104.9339,
    "source": "known_team_geo_seed_city_center_v3"
  },
  {
    "team": "Columbus Crew",
    "city": "Columbus",
    "country": "United States",
    "latitude": 39.9612,
    "longitude": -82.9988,
    "source": "known_team_geo_seed_city_center_v3"
  },
  {
    "team": "Como",
    "city": "Como",
    "country": "Italy",
    "latitude": 45.8081,
    "longitude": 9.0852,
    "source": "known_team_geo_seed_city_center_v2"
  },
  {
    "team": "Córdoba",
    "aliases": [
      "Cordoba"
    ],
    "city": "Córdoba",
    "country": "Spain",
    "latitude": 37.8882,
    "longitude": -4.7794,
    "source": "known_team_geo_seed_city_center_v2"
  },
  {
    "team": "Coritiba",
    "city": "Curitiba",
    "country": "Brazil",
    "latitude": -25.4284,
    "longitude": -49.2733,
    "source": "known_team_geo_seed_city_center_v4"
  },
  {
    "team": "Crawley Town",
    "city": "Crawley",
    "country": "England",
    "latitude": 51.1091,
    "longitude": -0.1872,
    "source": "known_team_geo_seed_city_center_v1"
  },
  {
    "team": "Crewe Alexandra",
    "city": "Crewe",
    "country": "England",
    "latitude": 53.1004,
    "longitude": -2.4438,
    "source": "known_team_geo_seed_city_center_v1"
  },
  {
    "team": "Cruzeiro",
    "city": "Belo Horizonte",
    "country": "Brazil",
    "latitude": -19.9167,
    "longitude": -43.9345,
    "source": "known_team_geo_seed_city_center_v4"
  },
  {
    "team": "Crystal Palace",
    "city": "London",
    "country": "England",
    "latitude": 51.5074,
    "longitude": -0.1278,
    "source": "known_team_geo_seed_city_center_v4"
  },
  {
    "team": "Cúcuta Deportivo",
    "aliases": [
      "Cucuta Deportivo",
      "CΓΊcuta Deportivo"
    ],
    "city": "Cúcuta",
    "country": "Colombia",
    "latitude": 7.8939,
    "longitude": -72.5078,
    "source": "known_team_geo_seed_city_center_v4"
  },
  {
    "team": "Cultural Leonesa",
    "city": "León",
    "country": "Spain",
    "latitude": 42.5987,
    "longitude": -5.5671,
    "source": "known_team_geo_seed_city_center_v2"
  },
  {
    "team": "D.C. United",
    "aliases": [
      "DC United"
    ],
    "city": "Washington",
    "country": "United States",
    "latitude": 38.9072,
    "longitude": -77.0369,
    "source": "known_team_geo_seed_city_center_v3"
  },
  {
    "team": "Damac",
    "city": "Khamis Mushait",
    "country": "Saudi Arabia",
    "latitude": 18.3064,
    "longitude": 42.7292,
    "source": "known_team_geo_seed_city_center_v2"
  },
  {
    "team": "Danubio",
    "city": "Montevideo",
    "country": "Uruguay",
    "latitude": -34.9011,
    "longitude": -56.1645,
    "source": "known_team_geo_seed_city_center_v4"
  },
  {
    "team": "Degerfors IF",
    "city": "Degerfors",
    "country": "Sweden",
    "latitude": 59.2371,
    "longitude": 14.4308,
    "source": "known_team_geo_seed_city_center_v2"
  },
  {
    "team": "Dender",
    "city": "Denderleeuw",
    "country": "Belgium",
    "latitude": 50.8851,
    "longitude": 4.076,
    "source": "known_team_geo_seed_city_center_v4"
  },
  {
    "team": "Deportes Tolima",
    "city": "Ibagué",
    "country": "Colombia",
    "latitude": 4.4389,
    "longitude": -75.2322,
    "source": "known_team_geo_seed_city_center_v3"
  },
  {
    "team": "Deportivo Cali",
    "city": "Cali",
    "country": "Colombia",
    "latitude": 3.4516,
    "longitude": -76.532,
    "source": "known_team_geo_seed_city_center_v3"
  },
  {
    "team": "Deportivo Maldonado",
    "city": "Maldonado",
    "country": "Uruguay",
    "latitude": -34.9014,
    "longitude": -54.9518,
    "source": "known_team_geo_seed_city_center_v2"
  },
  {
    "team": "Deportivo Moquegua",
    "city": "Moquegua",
    "country": "Peru",
    "latitude": -17.1927,
    "longitude": -70.9328,
    "source": "known_team_geo_seed_city_center_v4"
  },
  {
    "team": "Deportivo Riestra",
    "city": "Buenos Aires",
    "country": "Argentina",
    "latitude": -34.6037,
    "longitude": -58.3816,
    "source": "known_team_geo_seed_city_center_v2"
  },
  {
    "team": "Derry City",
    "city": "Derry",
    "country": "Northern Ireland",
    "latitude": 54.9966,
    "longitude": -7.3086,
    "source": "known_team_geo_seed"
  },
  {
    "team": "Doncaster Rovers",
    "city": "Doncaster",
    "country": "England",
    "latitude": 53.5228,
    "longitude": -1.1285,
    "source": "known_team_geo_seed_city_center_v1"
  },
  {
    "team": "Drogheda Utd",
    "aliases": [
      "Drogheda United"
    ],
    "city": "Drogheda",
    "country": "Ireland",
    "latitude": 53.7179,
    "longitude": -6.3561,
    "source": "known_team_geo_seed"
  },
  {
    "team": "Dundalk",
    "city": "Dundalk",
    "country": "Ireland",
    "latitude": 54,
    "longitude": -6.4167,
    "source": "known_team_geo_seed"
  },
  {
    "team": "Dundee",
    "city": "Dundee",
    "country": "Scotland",
    "latitude": 56.462,
    "longitude": -2.9707,
    "source": "known_team_geo_seed_city_center_v2"
  },
  {
    "team": "Dundee United",
    "city": "Dundee",
    "country": "Scotland",
    "latitude": 56.462,
    "longitude": -2.9707,
    "source": "known_team_geo_seed_city_center_v2"
  },
  {
    "team": "Dunfermline Athletic",
    "city": "Dunfermline",
    "country": "Scotland",
    "latitude": 56.0717,
    "longitude": -3.4521,
    "source": "known_team_geo_seed"
  },
  {
    "team": "Dunkerque",
    "aliases": [
      "Dunkirk"
    ],
    "city": "Dunkirk",
    "country": "France",
    "latitude": 51.0344,
    "longitude": 2.3768,
    "source": "known_team_geo_seed_city_center_v1"
  },
  {
    "team": "Dynamo Dresden",
    "city": "Dresden",
    "country": "Germany",
    "latitude": 51.0504,
    "longitude": 13.7373,
    "source": "known_team_geo_seed_city_center_v1"
  },
  {
    "team": "Eibar",
    "city": "Eibar",
    "country": "Spain",
    "latitude": 43.1847,
    "longitude": -2.4716,
    "source": "known_team_geo_seed_city_center_v2"
  },
  {
    "team": "Eintracht Frankfurt",
    "city": "Frankfurt am Main",
    "country": "Germany",
    "latitude": 50.1109,
    "longitude": 8.6821,
    "source": "known_team_geo_seed_city_center_v1"
  },
  {
    "team": "Elche",
    "city": "Elche",
    "country": "Spain",
    "latitude": 38.2699,
    "longitude": -0.7126,
    "source": "known_team_geo_seed_city_center_v4"
  },
  {
    "team": "Enosis Neon Paralimni",
    "city": "Paralimni",
    "country": "Cyprus",
    "latitude": 35.0395,
    "longitude": 33.9818,
    "source": "known_team_geo_seed_city_center_v2"
  },
  {
    "team": "Espanyol",
    "city": "Barcelona",
    "country": "Spain",
    "latitude": 41.3874,
    "longitude": 2.1686,
    "source": "known_team_geo_seed_city_center_v4"
  },
  {
    "team": "Estoril",
    "aliases": [
      "Estoril Praia"
    ],
    "city": "Estoril",
    "country": "Portugal",
    "latitude": 38.7057,
    "longitude": -9.3977,
    "source": "known_team_geo_seed_city_center_v4"
  },
  {
    "team": "Estrela",
    "aliases": [
      "Estrela da Amadora"
    ],
    "city": "Amadora",
    "country": "Portugal",
    "latitude": 38.7597,
    "longitude": -9.2397,
    "source": "known_team_geo_seed_city_center_v2"
  },
  {
    "team": "Estudiantes de La Plata",
    "aliases": [
      "Estudiantes"
    ],
    "city": "La Plata",
    "country": "Argentina",
    "latitude": -34.9205,
    "longitude": -57.9536,
    "source": "known_team_geo_seed_city_center_v4"
  },
  {
    "team": "Ethnikos Achnas",
    "city": "Dasaki Achnas",
    "country": "Cyprus",
    "latitude": 35.046,
    "longitude": 33.786,
    "source": "known_team_geo_seed"
  },
  {
    "team": "Excelsior",
    "aliases": [
      "Excelsior Rotterdam"
    ],
    "city": "Rotterdam",
    "country": "Netherlands",
    "latitude": 51.9244,
    "longitude": 4.4777,
    "source": "known_team_geo_seed_city_center_v2"
  },
  {
    "team": "Exeter City",
    "city": "Exeter",
    "country": "England",
    "latitude": 50.7184,
    "longitude": -3.5339,
    "source": "known_team_geo_seed_city_center_v1"
  },
  {
    "team": "Eyupspor",
    "aliases": [
      "Eyüpspor"
    ],
    "city": "Istanbul",
    "country": "Turkey",
    "latitude": 41.0082,
    "longitude": 28.9784,
    "source": "known_team_geo_seed_city_center_v3"
  },
  {
    "team": "Fagiano Okayama",
    "city": "Okayama",
    "country": "Japan",
    "latitude": 34.6551,
    "longitude": 133.9195,
    "source": "known_team_geo_seed_city_center_v1"
  },
  {
    "team": "Falkirk",
    "city": "Falkirk",
    "country": "Scotland",
    "latitude": 56.0019,
    "longitude": -3.7839,
    "source": "known_team_geo_seed_city_center_v2"
  },
  {
    "team": "Fatih Karagümrük",
    "aliases": [
      "Fatih Karagumruk"
    ],
    "city": "Istanbul",
    "country": "Turkey",
    "latitude": 41.0082,
    "longitude": 28.9784,
    "source": "known_team_geo_seed_city_center_v3"
  },
  {
    "team": "FC Augsburg",
    "city": "Augsburg",
    "country": "Germany",
    "latitude": 48.3705,
    "longitude": 10.8978,
    "source": "known_team_geo_seed_city_center_v1"
  },
  {
    "team": "FC Blau-Weiß Linz",
    "aliases": [
      "FC Blau-Weiss Linz",
      "Blau-Weiß Linz",
      "Blau-Weiss Linz"
    ],
    "city": "Linz",
    "country": "Austria",
    "latitude": 48.3069,
    "longitude": 14.2858,
    "source": "known_team_geo_seed_city_center_v2"
  },
  {
    "team": "FC Cajamarca",
    "aliases": [
      "UTC Cajamarca"
    ],
    "city": "Cajamarca",
    "country": "Peru",
    "latitude": -7.1617,
    "longitude": -78.5128,
    "source": "known_team_geo_seed_city_center_v2"
  },
  {
    "team": "FC Cincinnati",
    "city": "Cincinnati",
    "country": "United States",
    "latitude": 39.1031,
    "longitude": -84.512,
    "source": "known_team_geo_seed_city_center_v3"
  },
  {
    "team": "FC Cologne",
    "aliases": [
      "1. FC Köln",
      "1. FC Koln",
      "FC Köln",
      "FC Koln"
    ],
    "city": "Cologne",
    "country": "Germany",
    "latitude": 50.9375,
    "longitude": 6.9603,
    "source": "known_team_geo_seed_city_center_v1"
  },
  {
    "team": "FC Dallas",
    "city": "Frisco",
    "country": "United States",
    "latitude": 33.1507,
    "longitude": -96.8236,
    "source": "known_team_geo_seed_city_center_v3"
  },
  {
    "team": "FC Famalicao",
    "aliases": [
      "Famalicão",
      "Famalicao"
    ],
    "city": "Vila Nova de Famalicão",
    "country": "Portugal",
    "latitude": 41.407,
    "longitude": -8.5198,
    "source": "known_team_geo_seed_city_center_v2"
  },
  {
    "team": "FC Fredericia",
    "city": "Fredericia",
    "country": "Denmark",
    "latitude": 55.5657,
    "longitude": 9.7526,
    "source": "known_team_geo_seed_city_center_v3"
  },
  {
    "team": "FC Groningen",
    "city": "Groningen",
    "country": "Netherlands",
    "latitude": 53.2194,
    "longitude": 6.5665,
    "source": "known_team_geo_seed_city_center_v2"
  },
  {
    "team": "FC Nordsjaelland",
    "aliases": [
      "FC Nordsjælland",
      "Nordsjaelland",
      "Nordsjælland"
    ],
    "city": "Farum",
    "country": "Denmark",
    "latitude": 55.8085,
    "longitude": 12.3608,
    "source": "known_team_geo_seed"
  },
  {
    "team": "FC Tokyo",
    "city": "Tokyo",
    "country": "Japan",
    "latitude": 35.6762,
    "longitude": 139.6503,
    "source": "known_team_geo_seed_city_center_v2"
  },
  {
    "team": "FC Twente",
    "city": "Enschede",
    "country": "Netherlands",
    "latitude": 52.2215,
    "longitude": 6.8937,
    "source": "known_team_geo_seed_city_center_v4"
  },
  {
    "team": "FC Utrecht",
    "city": "Utrecht",
    "country": "Netherlands",
    "latitude": 52.0907,
    "longitude": 5.1214,
    "source": "known_team_geo_seed_city_center_v2"
  },
  {
    "team": "FC Volendam",
    "city": "Volendam",
    "country": "Netherlands",
    "latitude": 52.495,
    "longitude": 5.0708,
    "source": "known_team_geo_seed_city_center_v4"
  },
  {
    "team": "Fenerbahce",
    "aliases": [
      "Fenerbahçe"
    ],
    "city": "Istanbul",
    "country": "Turkey",
    "latitude": 41.0082,
    "longitude": 28.9784,
    "source": "known_team_geo_seed_city_center_v2"
  },
  {
    "team": "Feyenoord Rotterdam",
    "aliases": [
      "Feyenoord"
    ],
    "city": "Rotterdam",
    "country": "Netherlands",
    "latitude": 51.9244,
    "longitude": 4.4777,
    "source": "known_team_geo_seed_city_center_v4"
  },
  {
    "team": "Flamengo",
    "city": "Rio de Janeiro",
    "country": "Brazil",
    "latitude": -22.9068,
    "longitude": -43.1729,
    "source": "known_team_geo_seed_city_center_v3"
  },
  {
    "team": "Fleetwood Town",
    "city": "Fleetwood",
    "country": "England",
    "latitude": 53.9253,
    "longitude": -3.0109,
    "source": "known_team_geo_seed_city_center_v1"
  },
  {
    "team": "Fortaleza CEIF",
    "city": "Bogotá",
    "country": "Colombia",
    "latitude": 4.711,
    "longitude": -74.0721,
    "source": "known_team_geo_seed_city_center_v3"
  },
  {
    "team": "Fortuna Düsseldorf",
    "aliases": [
      "Fortuna Dusseldorf"
    ],
    "city": "Düsseldorf",
    "country": "Germany",
    "latitude": 51.2277,
    "longitude": 6.7735,
    "source": "known_team_geo_seed_city_center_v1"
  },
  {
    "team": "Fortuna Sittard",
    "city": "Sittard",
    "country": "Netherlands",
    "latitude": 50.9982,
    "longitude": 5.8697,
    "source": "known_team_geo_seed_city_center_v4"
  },
  {
    "team": "Fredrikstad",
    "aliases": [
      "Fredrikstad FK"
    ],
    "city": "Fredrikstad",
    "country": "Norway",
    "latitude": 59.2205,
    "longitude": 10.9347,
    "source": "known_team_geo_seed_city_center_v2"
  },
  {
    "team": "Fulham",
    "city": "London",
    "country": "England",
    "latitude": 51.5074,
    "longitude": -0.1278,
    "source": "known_team_geo_seed_city_center_v2"
  },
  {
    "team": "GAIS",
    "city": "Gothenburg",
    "country": "Sweden",
    "latitude": 57.7089,
    "longitude": 11.9746,
    "source": "known_team_geo_seed_city_center_v3"
  },
  {
    "team": "Galatasaray",
    "city": "Istanbul",
    "country": "Turkey",
    "latitude": 41.0082,
    "longitude": 28.9784,
    "source": "known_team_geo_seed_city_center_v2"
  },
  {
    "team": "Galway Utd",
    "aliases": [
      "Galway United"
    ],
    "city": "Galway",
    "country": "Ireland",
    "latitude": 53.2707,
    "longitude": -9.0568,
    "source": "known_team_geo_seed"
  },
  {
    "team": "Gaziantep FK",
    "city": "Gaziantep",
    "country": "Turkey",
    "latitude": 37.0662,
    "longitude": 37.3833,
    "source": "known_team_geo_seed"
  },
  {
    "team": "Genclerbirligi",
    "aliases": [
      "Gençlerbirliği"
    ],
    "city": "Ankara",
    "country": "Turkey",
    "latitude": 39.9334,
    "longitude": 32.8597,
    "source": "known_team_geo_seed_city_center_v3"
  },
  {
    "team": "Genoa",
    "city": "Genoa",
    "country": "Italy",
    "latitude": 44.4056,
    "longitude": 8.9463,
    "source": "known_team_geo_seed_city_center_v2"
  },
  {
    "team": "Getafe",
    "city": "Getafe",
    "country": "Spain",
    "latitude": 40.3083,
    "longitude": -3.7328,
    "source": "known_team_geo_seed_city_center_v4"
  },
  {
    "team": "Gil Vicente",
    "city": "Barcelos",
    "country": "Portugal",
    "latitude": 41.5388,
    "longitude": -8.6151,
    "source": "known_team_geo_seed_city_center_v4"
  },
  {
    "team": "Gillingham",
    "city": "Gillingham",
    "country": "England",
    "latitude": 51.3863,
    "longitude": 0.5514,
    "source": "known_team_geo_seed_city_center_v1"
  },
  {
    "team": "Gimnasia La Plata",
    "aliases": [
      "Gimnasia y Esgrima La Plata"
    ],
    "city": "La Plata",
    "country": "Argentina",
    "latitude": -34.9205,
    "longitude": -57.9536,
    "source": "known_team_geo_seed_city_center_v3"
  },
  {
    "team": "Go Ahead Eagles",
    "city": "Deventer",
    "country": "Netherlands",
    "latitude": 52.2661,
    "longitude": 6.1552,
    "source": "known_team_geo_seed_city_center_v4"
  },
  {
    "team": "Goztepe",
    "aliases": [
      "Göztepe"
    ],
    "city": "Izmir",
    "country": "Turkey",
    "latitude": 38.4237,
    "longitude": 27.1428,
    "source": "known_team_geo_seed_city_center_v2"
  },
  {
    "team": "Grazer AK",
    "aliases": [
      "GAK"
    ],
    "city": "Graz",
    "country": "Austria",
    "latitude": 47.0707,
    "longitude": 15.4395,
    "source": "known_team_geo_seed_city_center_v2"
  },
  {
    "team": "Greenock Morton",
    "city": "Greenock",
    "country": "Scotland",
    "latitude": 55.9565,
    "longitude": -4.77198,
    "source": "known_team_geo_seed"
  },
  {
    "team": "Grêmio",
    "aliases": [
      "Gremio",
      "GrΓmio"
    ],
    "city": "Porto Alegre",
    "country": "Brazil",
    "latitude": -30.0346,
    "longitude": -51.2177,
    "source": "known_team_geo_seed_city_center_v4"
  },
  {
    "team": "Grenoble",
    "aliases": [
      "Grenoble Foot 38"
    ],
    "city": "Grenoble",
    "country": "France",
    "latitude": 45.1885,
    "longitude": 5.7245,
    "source": "known_team_geo_seed_city_center_v2"
  },
  {
    "team": "Grimsby Town",
    "city": "Grimsby",
    "country": "England",
    "latitude": 53.5675,
    "longitude": -0.0808,
    "source": "known_team_geo_seed_city_center_v1"
  },
  {
    "team": "Guadalajara",
    "aliases": [
      "Chivas"
    ],
    "city": "Guadalajara",
    "country": "Mexico",
    "latitude": 20.6597,
    "longitude": -103.3496,
    "source": "known_team_geo_seed_city_center_v4"
  },
  {
    "team": "Guingamp",
    "aliases": [
      "EA Guingamp"
    ],
    "city": "Guingamp",
    "country": "France",
    "latitude": 48.5625,
    "longitude": -3.1502,
    "source": "known_team_geo_seed_city_center_v2"
  },
  {
    "team": "Hamarkameratene",
    "aliases": [
      "HamKam"
    ],
    "city": "Hamar",
    "country": "Norway",
    "latitude": 60.7945,
    "longitude": 11.0679,
    "source": "known_team_geo_seed_city_center_v3"
  },
  {
    "team": "Hamburg SV",
    "aliases": [
      "Hamburger SV",
      "HSV"
    ],
    "city": "Hamburg",
    "country": "Germany",
    "latitude": 53.5511,
    "longitude": 9.9937,
    "source": "known_team_geo_seed_city_center_v1"
  },
  {
    "team": "Hammarby IF",
    "city": "Stockholm",
    "country": "Sweden",
    "latitude": 59.3293,
    "longitude": 18.0686,
    "source": "known_team_geo_seed_city_center_v3"
  },
  {
    "team": "Hannover 96",
    "city": "Hanover",
    "country": "Germany",
    "latitude": 52.3759,
    "longitude": 9.732,
    "source": "known_team_geo_seed_city_center_v4"
  },
  {
    "team": "Harrogate Town",
    "city": "Harrogate",
    "country": "England",
    "latitude": 53.9921,
    "longitude": -1.5418,
    "source": "known_team_geo_seed_city_center_v1"
  },
  {
    "team": "Heerenveen",
    "aliases": [
      "SC Heerenveen"
    ],
    "city": "Heerenveen",
    "country": "Netherlands",
    "latitude": 52.9593,
    "longitude": 5.9185,
    "source": "known_team_geo_seed_city_center_v4"
  },
  {
    "team": "Hellas Verona",
    "aliases": [
      "Verona"
    ],
    "city": "Verona",
    "country": "Italy",
    "latitude": 45.4384,
    "longitude": 10.9916,
    "source": "known_team_geo_seed_city_center_v4"
  },
  {
    "team": "Heracles Almelo",
    "aliases": [
      "Heracles"
    ],
    "city": "Almelo",
    "country": "Netherlands",
    "latitude": 52.3567,
    "longitude": 6.6625,
    "source": "known_team_geo_seed_city_center_v4"
  },
  {
    "team": "Hertha Berlin",
    "city": "Berlin",
    "country": "Germany",
    "latitude": 52.52,
    "longitude": 13.405,
    "source": "known_team_geo_seed_city_center_v4"
  },
  {
    "team": "Hibernian",
    "aliases": [
      "Hibs"
    ],
    "city": "Edinburgh",
    "country": "Scotland",
    "latitude": 55.9533,
    "longitude": -3.1883,
    "source": "known_team_geo_seed_city_center_v4"
  },
  {
    "team": "Highbury",
    "aliases": [
      "Highbury FC"
    ],
    "city": "Gqeberha",
    "country": "South Africa",
    "latitude": -33.9608,
    "longitude": 25.6022,
    "source": "known_team_geo_seed"
  },
  {
    "team": "Holstein Kiel",
    "city": "Kiel",
    "country": "Germany",
    "latitude": 54.3233,
    "longitude": 10.1228,
    "source": "known_team_geo_seed_city_center_v1"
  },
  {
    "team": "Houston Dynamo FC",
    "aliases": [
      "Houston Dynamo"
    ],
    "city": "Houston",
    "country": "United States",
    "latitude": 29.7604,
    "longitude": -95.3698,
    "source": "known_team_geo_seed_city_center_v3"
  },
  {
    "team": "Huddersfield Town",
    "city": "Huddersfield",
    "country": "England",
    "latitude": 53.6458,
    "longitude": -1.785,
    "source": "known_team_geo_seed_city_center_v1"
  },
  {
    "team": "Huesca",
    "city": "Huesca",
    "country": "Spain",
    "latitude": 42.1401,
    "longitude": -0.4089,
    "source": "known_team_geo_seed_city_center_v4"
  },
  {
    "team": "Huracán",
    "aliases": [
      "Huracan"
    ],
    "city": "Buenos Aires",
    "country": "Argentina",
    "latitude": -34.6037,
    "longitude": -58.3816,
    "source": "known_team_geo_seed_city_center_v3"
  },
  {
    "team": "IK Sirius",
    "city": "Uppsala",
    "country": "Sweden",
    "latitude": 59.8586,
    "longitude": 17.6389,
    "source": "known_team_geo_seed_city_center_v2"
  },
  {
    "team": "IK Start",
    "aliases": [
      "Start"
    ],
    "city": "Kristiansand",
    "country": "Norway",
    "latitude": 58.1599,
    "longitude": 8.0182,
    "source": "known_team_geo_seed_city_center_v3"
  },
  {
    "team": "Independiente",
    "city": "Avellaneda",
    "country": "Argentina",
    "latitude": -34.6606,
    "longitude": -58.366,
    "source": "known_team_geo_seed_city_center_v4"
  },
  {
    "team": "Independiente Santa Fe",
    "aliases": [
      "Santa Fe"
    ],
    "city": "Bogotá",
    "country": "Colombia",
    "latitude": 4.711,
    "longitude": -74.0721,
    "source": "known_team_geo_seed_city_center_v3"
  },
  {
    "team": "Inter Miami CF",
    "aliases": [
      "Inter Miami"
    ],
    "city": "Fort Lauderdale",
    "country": "United States",
    "latitude": 26.1224,
    "longitude": -80.1373,
    "source": "known_team_geo_seed_city_center_v3"
  },
  {
    "team": "Internacional de Bogotá",
    "aliases": [
      "Internacional de Bogota"
    ],
    "city": "Bogotá",
    "country": "Colombia",
    "latitude": 4.711,
    "longitude": -74.0721,
    "source": "known_team_geo_seed_city_center_v3"
  },
  {
    "team": "Internazionale",
    "aliases": [
      "Inter Milan",
      "Inter"
    ],
    "city": "Milan",
    "country": "Italy",
    "latitude": 45.4642,
    "longitude": 9.19,
    "source": "known_team_geo_seed_city_center_v4"
  },
  {
    "team": "Istanbul Basaksehir",
    "aliases": [
      "İstanbul Başakşehir",
      "Basaksehir"
    ],
    "city": "Istanbul",
    "country": "Turkey",
    "latitude": 41.0082,
    "longitude": 28.9784,
    "source": "known_team_geo_seed_city_center_v2"
  },
  {
    "team": "Jaguares de Córdoba",
    "aliases": [
      "Jaguares de Cordoba",
      "Jaguares de CΓ³rdoba"
    ],
    "city": "Montería",
    "country": "Colombia",
    "latitude": 8.75,
    "longitude": -75.8833,
    "source": "known_team_geo_seed_city_center_v4"
  },
  {
    "team": "JEF United Ichihara-Chiba",
    "aliases": [
      "JEF United Chiba"
    ],
    "city": "Chiba",
    "country": "Japan",
    "latitude": 35.6074,
    "longitude": 140.1065,
    "source": "known_team_geo_seed_city_center_v2"
  },
  {
    "team": "Juan Pablo II",
    "city": "Chongoyape",
    "country": "Peru",
    "latitude": -6.6406,
    "longitude": -79.3892,
    "source": "known_team_geo_seed_city_center_v3"
  },
  {
    "team": "Juventud",
    "city": "Las Piedras",
    "country": "Uruguay",
    "latitude": -34.7302,
    "longitude": -56.2192,
    "source": "known_team_geo_seed_city_center_v2"
  },
  {
    "team": "Juventus",
    "city": "Turin",
    "country": "Italy",
    "latitude": 45.0703,
    "longitude": 7.6869,
    "source": "known_team_geo_seed_city_center_v4"
  },
  {
    "team": "Kaiserslautern",
    "aliases": [
      "1. FC Kaiserslautern"
    ],
    "city": "Kaiserslautern",
    "country": "Germany",
    "latitude": 49.4401,
    "longitude": 7.7491,
    "source": "known_team_geo_seed_city_center_v1"
  },
  {
    "team": "Kalmar FF",
    "city": "Kalmar",
    "country": "Sweden",
    "latitude": 56.6634,
    "longitude": 16.3568,
    "source": "known_team_geo_seed_city_center_v2"
  },
  {
    "team": "Karlsruher SC",
    "city": "Karlsruhe",
    "country": "Germany",
    "latitude": 49.0069,
    "longitude": 8.4037,
    "source": "known_team_geo_seed_city_center_v4"
  },
  {
    "team": "Kashima Antlers",
    "city": "Kashima",
    "country": "Japan",
    "latitude": 35.9658,
    "longitude": 140.6448,
    "source": "known_team_geo_seed_city_center_v3"
  },
  {
    "team": "Kashiwa Reysol",
    "city": "Kashiwa",
    "country": "Japan",
    "latitude": 35.8676,
    "longitude": 139.9758,
    "source": "known_team_geo_seed_city_center_v3"
  },
  {
    "team": "Kasimpasa",
    "aliases": [
      "Kasımpaşa"
    ],
    "city": "Istanbul",
    "country": "Turkey",
    "latitude": 41.0082,
    "longitude": 28.9784,
    "source": "known_team_geo_seed_city_center_v3"
  },
  {
    "team": "Kawasaki Frontale",
    "city": "Kawasaki",
    "country": "Japan",
    "latitude": 35.5308,
    "longitude": 139.7036,
    "source": "known_team_geo_seed_city_center_v2"
  },
  {
    "team": "Kayserispor",
    "city": "Kayseri",
    "country": "Turkey",
    "latitude": 38.7205,
    "longitude": 35.4826,
    "source": "known_team_geo_seed_city_center_v3"
  },
  {
    "team": "KFUM Oslo",
    "city": "Oslo",
    "country": "Norway",
    "latitude": 59.9139,
    "longitude": 10.7522,
    "source": "known_team_geo_seed_city_center_v3"
  },
  {
    "team": "Kifisia",
    "aliases": [
      "AE Kifisia"
    ],
    "city": "Kifisia",
    "country": "Greece",
    "latitude": 38.0746,
    "longitude": 23.8117,
    "source": "known_team_geo_seed_city_center_v2"
  },
  {
    "team": "Kilmarnock",
    "city": "Kilmarnock",
    "country": "Scotland",
    "latitude": 55.6117,
    "longitude": -4.4958,
    "source": "known_team_geo_seed_city_center_v2"
  },
  {
    "team": "Kocaelispor",
    "city": "Izmit",
    "country": "Turkey",
    "latitude": 40.7654,
    "longitude": 29.9408,
    "source": "known_team_geo_seed_city_center_v3"
  },
  {
    "team": "Konyaspor",
    "city": "Konya",
    "country": "Turkey",
    "latitude": 37.8746,
    "longitude": 32.4932,
    "source": "known_team_geo_seed"
  },
  {
    "team": "Kristiansund BK",
    "city": "Kristiansund",
    "country": "Norway",
    "latitude": 63.1103,
    "longitude": 7.7281,
    "source": "known_team_geo_seed_city_center_v3"
  },
  {
    "team": "KVC Westerlo",
    "aliases": [
      "Westerlo"
    ],
    "city": "Westerlo",
    "country": "Belgium",
    "latitude": 51.0905,
    "longitude": 4.9157,
    "source": "known_team_geo_seed_city_center_v2"
  },
  {
    "team": "Kyoto Sanga",
    "city": "Kyoto",
    "country": "Japan",
    "latitude": 35.0116,
    "longitude": 135.7681,
    "source": "known_team_geo_seed_city_center_v2"
  },
  {
    "team": "LA Galaxy",
    "city": "Carson",
    "country": "United States",
    "latitude": 33.8314,
    "longitude": -118.282,
    "source": "known_team_geo_seed_city_center_v3"
  },
  {
    "team": "LAFC",
    "aliases": [
      "Los Angeles FC"
    ],
    "city": "Los Angeles",
    "country": "United States",
    "latitude": 34.0522,
    "longitude": -118.2437,
    "source": "known_team_geo_seed_city_center_v3"
  },
  {
    "team": "Lanús",
    "aliases": [
      "Lanus"
    ],
    "city": "Lanús",
    "country": "Argentina",
    "latitude": -34.7076,
    "longitude": -58.3916,
    "source": "known_team_geo_seed_city_center_v2"
  },
  {
    "team": "Las Palmas",
    "city": "Las Palmas de Gran Canaria",
    "country": "Spain",
    "latitude": 28.1235,
    "longitude": -15.4363,
    "source": "known_team_geo_seed_city_center_v4"
  },
  {
    "team": "Le Havre AC",
    "aliases": [
      "Le Havre"
    ],
    "city": "Le Havre",
    "country": "France",
    "latitude": 49.4944,
    "longitude": 0.1079,
    "source": "known_team_geo_seed_city_center_v4"
  },
  {
    "team": "Le Mans",
    "aliases": [
      "Le Mans FC"
    ],
    "city": "Le Mans",
    "country": "France",
    "latitude": 48.0061,
    "longitude": 0.1996,
    "source": "known_team_geo_seed_city_center_v2"
  },
  {
    "team": "Lens",
    "aliases": [
      "RC Lens"
    ],
    "city": "Lens",
    "country": "France",
    "latitude": 50.4319,
    "longitude": 2.8322,
    "source": "known_team_geo_seed_city_center_v1"
  },
  {
    "team": "Levadiakos",
    "city": "Livadia",
    "country": "Greece",
    "latitude": 38.4369,
    "longitude": 22.876,
    "source": "known_team_geo_seed_city_center_v4"
  },
  {
    "team": "Levante",
    "city": "Valencia",
    "country": "Spain",
    "latitude": 39.4699,
    "longitude": -0.3763,
    "source": "known_team_geo_seed_city_center_v2"
  },
  {
    "team": "Leyton Orient",
    "city": "London",
    "country": "England",
    "latitude": 51.5607,
    "longitude": -0.0151,
    "source": "known_team_geo_seed_city_center_v1"
  },
  {
    "team": "Lille",
    "aliases": [
      "LOSC Lille"
    ],
    "city": "Lille",
    "country": "France",
    "latitude": 50.6292,
    "longitude": 3.0573,
    "source": "known_team_geo_seed_city_center_v4"
  },
  {
    "team": "Lillestrom",
    "aliases": [
      "Lillestrøm",
      "Lillestrøm SK"
    ],
    "city": "Lillestrøm",
    "country": "Norway",
    "latitude": 59.955,
    "longitude": 11.0492,
    "source": "known_team_geo_seed_city_center_v3"
  },
  {
    "team": "Lincoln City",
    "city": "Lincoln",
    "country": "England",
    "latitude": 53.2307,
    "longitude": -0.5406,
    "source": "known_team_geo_seed_city_center_v1"
  },
  {
    "team": "Liverpool",
    "aliases": [
      "Liverpool Montevideo"
    ],
    "city": "Montevideo",
    "country": "Uruguay",
    "latitude": -34.9011,
    "longitude": -56.1645,
    "source": "known_team_geo_seed_city_center_v4"
  },
  {
    "team": "Livingston",
    "city": "Livingston",
    "country": "Scotland",
    "latitude": 55.9029,
    "longitude": -3.5226,
    "source": "known_team_geo_seed"
  },
  {
    "team": "Lorient",
    "city": "Lorient",
    "country": "France",
    "latitude": 47.7483,
    "longitude": -3.3702,
    "source": "known_team_geo_seed_city_center_v1"
  },
  {
    "team": "Luton Town",
    "city": "Luton",
    "country": "England",
    "latitude": 51.8787,
    "longitude": -0.42,
    "source": "known_team_geo_seed_city_center_v1"
  },
  {
    "team": "Lyon",
    "aliases": [
      "Olympique Lyonnais"
    ],
    "city": "Lyon",
    "country": "France",
    "latitude": 45.764,
    "longitude": 4.8357,
    "source": "known_team_geo_seed_city_center_v4"
  },
  {
    "team": "Machida Zelvia",
    "city": "Machida",
    "country": "Japan",
    "latitude": 35.5466,
    "longitude": 139.4386,
    "source": "known_team_geo_seed_city_center_v3"
  },
  {
    "team": "Mainz",
    "aliases": [
      "FSV Mainz",
      "1. FSV Mainz 05"
    ],
    "city": "Mainz",
    "country": "Germany",
    "latitude": 49.9929,
    "longitude": 8.2473,
    "source": "known_team_geo_seed_city_center_v4"
  },
  {
    "team": "Málaga",
    "aliases": [
      "Malaga"
    ],
    "city": "Málaga",
    "country": "Spain",
    "latitude": 36.7213,
    "longitude": -4.4214,
    "source": "known_team_geo_seed_city_center_v2"
  },
  {
    "team": "Malmö FF",
    "aliases": [
      "Malmo FF"
    ],
    "city": "Malmö",
    "country": "Sweden",
    "latitude": 55.605,
    "longitude": 13.0038,
    "source": "known_team_geo_seed_city_center_v3"
  },
  {
    "team": "Manchester United",
    "city": "Manchester",
    "country": "England",
    "latitude": 53.4808,
    "longitude": -2.2426,
    "source": "known_team_geo_seed_city_center_v4"
  },
  {
    "team": "Mansfield Town",
    "city": "Mansfield",
    "country": "England",
    "latitude": 53.1472,
    "longitude": -1.1987,
    "source": "known_team_geo_seed_city_center_v1"
  },
  {
    "team": "Marseille",
    "aliases": [
      "Olympique Marseille",
      "OM"
    ],
    "city": "Marseille",
    "country": "France",
    "latitude": 43.2965,
    "longitude": 5.3698,
    "source": "known_team_geo_seed_city_center_v1"
  },
  {
    "team": "Metz",
    "city": "Metz",
    "country": "France",
    "latitude": 49.1193,
    "longitude": 6.1757,
    "source": "known_team_geo_seed_city_center_v1"
  },
  {
    "team": "Middlesbrough",
    "city": "Middlesbrough",
    "country": "England",
    "latitude": 54.5742,
    "longitude": -1.2348,
    "source": "known_team_geo_seed_city_center_v1"
  },
  {
    "team": "Midlands Wanderers",
    "city": "Pietermaritzburg",
    "country": "South Africa",
    "latitude": -29.6006,
    "longitude": 30.3794,
    "venue": "Harry Gwala Stadium",
    "source": "known_team_geo_seed"
  },
  {
    "team": "Millonarios",
    "city": "Bogotá",
    "country": "Colombia",
    "latitude": 4.711,
    "longitude": -74.0721,
    "source": "known_team_geo_seed_city_center_v3"
  },
  {
    "team": "Milton Keynes Dons",
    "aliases": [
      "MK Dons"
    ],
    "city": "Milton Keynes",
    "country": "England",
    "latitude": 52.0406,
    "longitude": -0.7594,
    "source": "known_team_geo_seed_city_center_v1"
  },
  {
    "team": "Minnesota United FC",
    "aliases": [
      "Minnesota United"
    ],
    "city": "Saint Paul",
    "country": "United States",
    "latitude": 44.9537,
    "longitude": -93.09,
    "source": "known_team_geo_seed_city_center_v3"
  },
  {
    "team": "Mito Hollyhock",
    "city": "Mito",
    "country": "Japan",
    "latitude": 36.3659,
    "longitude": 140.4714,
    "source": "known_team_geo_seed_city_center_v2"
  },
  {
    "team": "Mjällby AIF",
    "aliases": [
      "Mjallby AIF"
    ],
    "city": "Hällevik",
    "country": "Sweden",
    "latitude": 56.0136,
    "longitude": 14.704,
    "source": "known_team_geo_seed_city_center_v3"
  },
  {
    "team": "Montevideo City Torque",
    "city": "Montevideo",
    "country": "Uruguay",
    "latitude": -34.9011,
    "longitude": -56.1645,
    "source": "known_team_geo_seed_city_center_v3"
  },
  {
    "team": "Montevideo Wanderers",
    "city": "Montevideo",
    "country": "Uruguay",
    "latitude": -34.9011,
    "longitude": -56.1645,
    "source": "known_team_geo_seed_city_center_v2"
  },
  {
    "team": "Montpellier",
    "aliases": [
      "Montpellier HSC"
    ],
    "city": "Montpellier",
    "country": "France",
    "latitude": 43.6108,
    "longitude": 3.8767,
    "source": "known_team_geo_seed_city_center_v2"
  },
  {
    "team": "Moreirense",
    "city": "Moreira de Cónegos",
    "country": "Portugal",
    "latitude": 41.3868,
    "longitude": -8.3393,
    "source": "known_team_geo_seed_city_center_v2"
  },
  {
    "team": "Motherwell",
    "city": "Motherwell",
    "country": "Scotland",
    "latitude": 55.783,
    "longitude": -3.981,
    "source": "known_team_geo_seed_city_center_v2"
  },
  {
    "team": "NAC Breda",
    "city": "Breda",
    "country": "Netherlands",
    "latitude": 51.5719,
    "longitude": 4.7683,
    "source": "known_team_geo_seed_city_center_v2"
  },
  {
    "team": "Nagoya Grampus",
    "city": "Nagoya",
    "country": "Japan",
    "latitude": 35.1815,
    "longitude": 136.9066,
    "source": "known_team_geo_seed_city_center_v3"
  },
  {
    "team": "Nantes",
    "city": "Nantes",
    "country": "France",
    "latitude": 47.2184,
    "longitude": -1.5536,
    "source": "known_team_geo_seed_city_center_v1"
  },
  {
    "team": "Napoli",
    "city": "Naples",
    "country": "Italy",
    "latitude": 40.8518,
    "longitude": 14.2681,
    "source": "known_team_geo_seed_city_center_v2"
  },
  {
    "team": "Nashville SC",
    "city": "Nashville",
    "country": "United States",
    "latitude": 36.1627,
    "longitude": -86.7816,
    "source": "known_team_geo_seed_city_center_v3"
  },
  {
    "team": "NEC Nijmegen",
    "aliases": [
      "NEC"
    ],
    "city": "Nijmegen",
    "country": "Netherlands",
    "latitude": 51.8126,
    "longitude": 5.8372,
    "source": "known_team_geo_seed_city_center_v2"
  },
  {
    "team": "Neom SC",
    "city": "Tabuk",
    "country": "Saudi Arabia",
    "latitude": 28.3838,
    "longitude": 36.5662,
    "source": "known_team_geo_seed_city_center_v2"
  },
  {
    "team": "New England Revolution",
    "city": "Foxborough",
    "country": "United States",
    "latitude": 42.0654,
    "longitude": -71.2478,
    "source": "known_team_geo_seed_city_center_v3"
  },
  {
    "team": "New York City FC",
    "aliases": [
      "NYCFC"
    ],
    "city": "New York",
    "country": "United States",
    "latitude": 40.7128,
    "longitude": -74.006,
    "source": "known_team_geo_seed_city_center_v3"
  },
  {
    "team": "Newcastle United",
    "city": "Newcastle upon Tyne",
    "country": "England",
    "latitude": 54.9783,
    "longitude": -1.6178,
    "source": "known_team_geo_seed_city_center_v2"
  },
  {
    "team": "Newport County",
    "city": "Newport",
    "country": "Wales",
    "latitude": 51.5842,
    "longitude": -2.9977,
    "source": "known_team_geo_seed_city_center_v1"
  },
  {
    "team": "Nice",
    "aliases": [
      "OGC Nice"
    ],
    "city": "Nice",
    "country": "France",
    "latitude": 43.7102,
    "longitude": 7.262,
    "source": "known_team_geo_seed_city_center_v1"
  },
  {
    "team": "Northampton Town",
    "city": "Northampton",
    "country": "England",
    "latitude": 52.2405,
    "longitude": -0.9027,
    "source": "known_team_geo_seed_city_center_v1"
  },
  {
    "team": "Notts County",
    "city": "Nottingham",
    "country": "England",
    "latitude": 52.9548,
    "longitude": -1.1581,
    "source": "known_team_geo_seed_city_center_v1"
  },
  {
    "team": "OFI Crete",
    "aliases": [
      "OFI"
    ],
    "city": "Heraklion",
    "country": "Greece",
    "latitude": 35.3387,
    "longitude": 25.1442,
    "source": "known_team_geo_seed_city_center_v4"
  },
  {
    "team": "OH Leuven",
    "aliases": [
      "Oud-Heverlee Leuven"
    ],
    "city": "Leuven",
    "country": "Belgium",
    "latitude": 50.8798,
    "longitude": 4.7005,
    "source": "known_team_geo_seed_city_center_v2"
  },
  {
    "team": "Oldham Athletic",
    "city": "Oldham",
    "country": "England",
    "latitude": 53.5409,
    "longitude": -2.1114,
    "source": "known_team_geo_seed_city_center_v1"
  },
  {
    "team": "Olympiacos",
    "aliases": [
      "Olympiakos",
      "Olympiacos Piraeus"
    ],
    "city": "Piraeus",
    "country": "Greece",
    "latitude": 37.942,
    "longitude": 23.6469,
    "source": "known_team_geo_seed_city_center_v3"
  },
  {
    "team": "Olympiakos Nicosia",
    "city": "Nicosia",
    "country": "Cyprus",
    "latitude": 35.1856,
    "longitude": 33.3823,
    "source": "known_team_geo_seed"
  },
  {
    "team": "Omonia Aradippou",
    "city": "Aradippou",
    "country": "Cyprus",
    "latitude": 34.9515,
    "longitude": 33.5916,
    "source": "known_team_geo_seed"
  },
  {
    "team": "Omonia Nicosia",
    "aliases": [
      "Omonia"
    ],
    "city": "Nicosia",
    "country": "Cyprus",
    "latitude": 35.1856,
    "longitude": 33.3823,
    "source": "known_team_geo_seed_city_center_v2"
  },
  {
    "team": "Örgryte IS",
    "aliases": [
      "Orgryte IS"
    ],
    "city": "Gothenburg",
    "country": "Sweden",
    "latitude": 57.7089,
    "longitude": 11.9746,
    "source": "known_team_geo_seed_city_center_v3"
  },
  {
    "team": "Orlando City SC",
    "aliases": [
      "Orlando City"
    ],
    "city": "Orlando",
    "country": "United States",
    "latitude": 28.5383,
    "longitude": -81.3792,
    "source": "known_team_geo_seed_city_center_v3"
  },
  {
    "team": "Osasuna",
    "city": "Pamplona",
    "country": "Spain",
    "latitude": 42.8125,
    "longitude": -1.6458,
    "source": "known_team_geo_seed_city_center_v2"
  },
  {
    "team": "Padova",
    "city": "Padua",
    "country": "Italy",
    "latitude": 45.4064,
    "longitude": 11.8768,
    "source": "known_team_geo_seed"
  },
  {
    "team": "Pafos",
    "aliases": [
      "Pafos FC"
    ],
    "city": "Paphos",
    "country": "Cyprus",
    "latitude": 34.772,
    "longitude": 32.4297,
    "source": "known_team_geo_seed_city_center_v3"
  },
  {
    "team": "Palermo",
    "city": "Palermo",
    "country": "Italy",
    "latitude": 38.1157,
    "longitude": 13.3615,
    "source": "known_team_geo_seed"
  },
  {
    "team": "Palmeiras",
    "city": "São Paulo",
    "country": "Brazil",
    "latitude": -23.5505,
    "longitude": -46.6333,
    "source": "known_team_geo_seed_city_center_v4"
  },
  {
    "team": "Panathinaikos",
    "city": "Athens",
    "country": "Greece",
    "latitude": 37.9838,
    "longitude": 23.7275,
    "source": "known_team_geo_seed_city_center_v3"
  },
  {
    "team": "Panetolikos",
    "city": "Agrinio",
    "country": "Greece",
    "latitude": 38.6245,
    "longitude": 21.4092,
    "source": "known_team_geo_seed_city_center_v2"
  },
  {
    "team": "PAOK Salonika",
    "aliases": [
      "PAOK",
      "PAOK Thessaloniki"
    ],
    "city": "Thessaloniki",
    "country": "Greece",
    "latitude": 40.6401,
    "longitude": 22.9444,
    "source": "known_team_geo_seed_city_center_v3"
  },
  {
    "team": "Paris FC",
    "city": "Paris",
    "country": "France",
    "latitude": 48.8566,
    "longitude": 2.3522,
    "source": "known_team_geo_seed_city_center_v4"
  },
  {
    "team": "Parma",
    "city": "Parma",
    "country": "Italy",
    "latitude": 44.8015,
    "longitude": 10.3279,
    "source": "known_team_geo_seed_city_center_v4"
  },
  {
    "team": "Partick Thistle",
    "city": "Glasgow",
    "country": "Scotland",
    "latitude": 55.8642,
    "longitude": -4.2518,
    "source": "known_team_geo_seed"
  },
  {
    "team": "Pau",
    "aliases": [
      "Pau FC"
    ],
    "city": "Pau",
    "country": "France",
    "latitude": 43.2951,
    "longitude": -0.3708,
    "source": "known_team_geo_seed_city_center_v2"
  },
  {
    "team": "PEC Zwolle",
    "city": "Zwolle",
    "country": "Netherlands",
    "latitude": 52.5168,
    "longitude": 6.083,
    "source": "known_team_geo_seed_city_center_v4"
  },
  {
    "team": "Pescara",
    "city": "Pescara",
    "country": "Italy",
    "latitude": 42.4618,
    "longitude": 14.2161,
    "source": "known_team_geo_seed"
  },
  {
    "team": "Peterborough United",
    "city": "Peterborough",
    "country": "England",
    "latitude": 52.5695,
    "longitude": -0.2405,
    "source": "known_team_geo_seed_city_center_v1"
  },
  {
    "team": "Philadelphia Union",
    "city": "Chester",
    "country": "United States",
    "latitude": 39.8496,
    "longitude": -75.3557,
    "source": "known_team_geo_seed_city_center_v3"
  },
  {
    "team": "Platense",
    "city": "Florida",
    "country": "Argentina",
    "latitude": -34.5323,
    "longitude": -58.4911,
    "source": "known_team_geo_seed_city_center_v4"
  },
  {
    "team": "Plymouth Argyle",
    "city": "Plymouth",
    "country": "England",
    "latitude": 50.3755,
    "longitude": -4.1427,
    "source": "known_team_geo_seed_city_center_v1"
  },
  {
    "team": "Polokwane City",
    "city": "Polokwane",
    "country": "South Africa",
    "latitude": -23.9045,
    "longitude": 29.4689,
    "source": "known_team_geo_seed_city_center_v4"
  },
  {
    "team": "Portland Timbers",
    "city": "Portland",
    "country": "United States",
    "latitude": 45.5152,
    "longitude": -122.6784,
    "source": "known_team_geo_seed_city_center_v2"
  },
  {
    "team": "Preußen Münster",
    "aliases": [
      "Preussen Munster",
      "PreuΓen MΓΌnster"
    ],
    "city": "Münster",
    "country": "Germany",
    "latitude": 51.9607,
    "longitude": 7.6261,
    "source": "known_team_geo_seed_city_center_v4"
  },
  {
    "team": "Progreso",
    "aliases": [
      "Club Atlético Progreso"
    ],
    "city": "Montevideo",
    "country": "Uruguay",
    "latitude": -34.9011,
    "longitude": -56.1645,
    "source": "known_team_geo_seed_city_center_v3"
  },
  {
    "team": "PSV Eindhoven",
    "aliases": [
      "PSV"
    ],
    "city": "Eindhoven",
    "country": "Netherlands",
    "latitude": 51.4416,
    "longitude": 5.4697,
    "source": "known_team_geo_seed_city_center_v2"
  },
  {
    "team": "Queen's Park",
    "city": "Glasgow",
    "country": "Scotland",
    "latitude": 55.8642,
    "longitude": -4.2518,
    "source": "known_team_geo_seed"
  },
  {
    "team": "Queens Park Rangers",
    "aliases": [
      "QPR",
      "Queen's Park Rangers"
    ],
    "city": "London",
    "country": "England",
    "latitude": 51.5074,
    "longitude": -0.1278,
    "source": "known_team_geo_seed_city_center_v1"
  },
  {
    "team": "RAAL La Louvière",
    "aliases": [
      "RAAL La Louviere",
      "RAAL La LouviΓ¨re"
    ],
    "city": "La Louvière",
    "country": "Belgium",
    "latitude": 50.4795,
    "longitude": 4.1879,
    "source": "known_team_geo_seed_city_center_v4"
  },
  {
    "team": "Racing (Montevideo)",
    "aliases": [
      "Racing Montevideo"
    ],
    "city": "Montevideo",
    "country": "Uruguay",
    "latitude": -34.9011,
    "longitude": -56.1645,
    "source": "known_team_geo_seed_city_center_v3"
  },
  {
    "team": "Racing Club",
    "city": "Avellaneda",
    "country": "Argentina",
    "latitude": -34.6606,
    "longitude": -58.366,
    "source": "known_team_geo_seed_city_center_v3"
  },
  {
    "team": "Racing Genk",
    "aliases": [
      "Genk"
    ],
    "city": "Genk",
    "country": "Belgium",
    "latitude": 50.965,
    "longitude": 5.5008,
    "source": "known_team_geo_seed_city_center_v2"
  },
  {
    "team": "Racing Santander",
    "city": "Santander",
    "country": "Spain",
    "latitude": 43.4623,
    "longitude": -3.8099,
    "source": "known_team_geo_seed_city_center_v4"
  },
  {
    "team": "Raith Rovers",
    "city": "Kirkcaldy",
    "country": "Scotland",
    "latitude": 56.1165,
    "longitude": -3.1599,
    "source": "known_team_geo_seed"
  },
  {
    "team": "Randers FC",
    "city": "Randers",
    "country": "Denmark",
    "latitude": 56.4606,
    "longitude": 10.0364,
    "source": "known_team_geo_seed_city_center_v3"
  },
  {
    "team": "Rayo Vallecano",
    "city": "Madrid",
    "country": "Spain",
    "latitude": 40.4168,
    "longitude": -3.7038,
    "source": "known_team_geo_seed_city_center_v4"
  },
  {
    "team": "RB Leipzig",
    "aliases": [
      "RasenBallsport Leipzig"
    ],
    "city": "Leipzig",
    "country": "Germany",
    "latitude": 51.3397,
    "longitude": 12.3731,
    "source": "known_team_geo_seed_city_center_v1"
  },
  {
    "team": "Real Betis",
    "city": "Seville",
    "country": "Spain",
    "latitude": 37.3891,
    "longitude": -5.9845,
    "source": "known_team_geo_seed_city_center_v4"
  },
  {
    "team": "Real Madrid",
    "city": "Madrid",
    "country": "Spain",
    "latitude": 40.4168,
    "longitude": -3.7038,
    "source": "known_team_geo_seed_city_center_v4"
  },
  {
    "team": "Real Oviedo",
    "city": "Oviedo",
    "country": "Spain",
    "latitude": 43.3614,
    "longitude": -5.8593,
    "source": "known_team_geo_seed_city_center_v4"
  },
  {
    "team": "Real Salt Lake",
    "city": "Salt Lake City",
    "country": "United States",
    "latitude": 40.7608,
    "longitude": -111.891,
    "source": "known_team_geo_seed_city_center_v2"
  },
  {
    "team": "Real Sociedad II",
    "city": "San Sebastián",
    "country": "Spain",
    "latitude": 43.3183,
    "longitude": -1.9812,
    "source": "known_team_geo_seed_city_center_v4"
  },
  {
    "team": "Real Valladolid",
    "city": "Valladolid",
    "country": "Spain",
    "latitude": 41.6523,
    "longitude": -4.7245,
    "source": "known_team_geo_seed_city_center_v4"
  },
  {
    "team": "Red Bull New York",
    "aliases": [
      "New York Red Bulls"
    ],
    "city": "Harrison",
    "country": "United States",
    "latitude": 40.7465,
    "longitude": -74.1563,
    "source": "known_team_geo_seed_city_center_v3"
  },
  {
    "team": "Red Star FC 93",
    "aliases": [
      "Red Star",
      "Red Star FC"
    ],
    "city": "Saint-Ouen-sur-Seine",
    "country": "France",
    "latitude": 48.9117,
    "longitude": 2.3338,
    "source": "known_team_geo_seed_city_center_v2"
  },
  {
    "team": "Remo",
    "aliases": [
      "Clube do Remo"
    ],
    "city": "Belém",
    "country": "Brazil",
    "latitude": -1.4558,
    "longitude": -48.4902,
    "source": "known_team_geo_seed_city_center_v2"
  },
  {
    "team": "Rio Ave",
    "city": "Vila do Conde",
    "country": "Portugal",
    "latitude": 41.3548,
    "longitude": -8.7434,
    "source": "known_team_geo_seed_city_center_v4"
  },
  {
    "team": "Rochdale",
    "city": "Rochdale",
    "country": "England",
    "latitude": 53.6097,
    "longitude": -2.1561,
    "source": "known_team_geo_seed_city_center_v4"
  },
  {
    "team": "Rodez Aveyron",
    "aliases": [
      "Rodez"
    ],
    "city": "Rodez",
    "country": "France",
    "latitude": 44.3494,
    "longitude": 2.575,
    "source": "known_team_geo_seed_city_center_v2"
  },
  {
    "team": "Rosario Central",
    "city": "Rosario",
    "country": "Argentina",
    "latitude": -32.9442,
    "longitude": -60.6505,
    "source": "known_team_geo_seed_city_center_v3"
  },
  {
    "team": "Rosenborg",
    "city": "Trondheim",
    "country": "Norway",
    "latitude": 63.4305,
    "longitude": 10.3951,
    "source": "known_team_geo_seed"
  },
  {
    "team": "Ross County",
    "city": "Dingwall",
    "country": "Scotland",
    "latitude": 57.5953,
    "longitude": -4.4272,
    "source": "known_team_geo_seed"
  },
  {
    "team": "Rotherham United",
    "city": "Rotherham",
    "country": "England",
    "latitude": 53.4326,
    "longitude": -1.3635,
    "source": "known_team_geo_seed_city_center_v1"
  },
  {
    "team": "Royal Charleroi SC",
    "aliases": [
      "Charleroi"
    ],
    "city": "Charleroi",
    "country": "Belgium",
    "latitude": 50.4108,
    "longitude": 4.4446,
    "source": "known_team_geo_seed_city_center_v2"
  },
  {
    "team": "Saint-Étienne",
    "aliases": [
      "Saint-Etienne",
      "AS Saint-Etienne",
      "AS Saint-Étienne"
    ],
    "city": "Saint-Étienne",
    "country": "France",
    "latitude": 45.4397,
    "longitude": 4.3872,
    "source": "known_team_geo_seed_city_center_v2"
  },
  {
    "team": "Sampdoria",
    "city": "Genoa",
    "country": "Italy",
    "latitude": 44.4056,
    "longitude": 8.9463,
    "source": "known_team_geo_seed"
  },
  {
    "team": "Samsunspor",
    "city": "Samsun",
    "country": "Turkey",
    "latitude": 41.2867,
    "longitude": 36.33,
    "source": "known_team_geo_seed_city_center_v2"
  },
  {
    "team": "San Diego FC",
    "city": "San Diego",
    "country": "United States",
    "latitude": 32.7157,
    "longitude": -117.1611,
    "source": "known_team_geo_seed_city_center_v3"
  },
  {
    "team": "San Jose Earthquakes",
    "city": "San Jose",
    "country": "United States",
    "latitude": 37.3382,
    "longitude": -121.8863,
    "source": "known_team_geo_seed_city_center_v2"
  },
  {
    "team": "San Lorenzo",
    "city": "Buenos Aires",
    "country": "Argentina",
    "latitude": -34.6037,
    "longitude": -58.3816,
    "source": "known_team_geo_seed_city_center_v4"
  },
  {
    "team": "Sandefjord",
    "aliases": [
      "Sandefjord Fotball"
    ],
    "city": "Sandefjord",
    "country": "Norway",
    "latitude": 59.1312,
    "longitude": 10.2166,
    "source": "known_team_geo_seed_city_center_v3"
  },
  {
    "team": "Sanfrecce Hiroshima",
    "city": "Hiroshima",
    "country": "Japan",
    "latitude": 34.3853,
    "longitude": 132.4553,
    "source": "known_team_geo_seed_city_center_v1"
  },
  {
    "team": "Santa Clara",
    "city": "Ponta Delgada",
    "country": "Portugal",
    "latitude": 37.7412,
    "longitude": -25.6756,
    "source": "known_team_geo_seed_city_center_v2"
  },
  {
    "team": "Santos",
    "city": "Santos",
    "country": "Brazil",
    "latitude": -23.9608,
    "longitude": -46.3336,
    "source": "known_team_geo_seed_city_center_v4"
  },
  {
    "team": "São Paulo",
    "aliases": [
      "Sao Paulo"
    ],
    "city": "São Paulo",
    "country": "Brazil",
    "latitude": -23.5505,
    "longitude": -46.6333,
    "source": "known_team_geo_seed_city_center_v3"
  },
  {
    "team": "Sarmiento (Junín)",
    "aliases": [
      "Sarmiento",
      "Sarmiento Junin"
    ],
    "city": "Junín",
    "country": "Argentina",
    "latitude": -34.585,
    "longitude": -60.9589,
    "source": "known_team_geo_seed_city_center_v3"
  },
  {
    "team": "Sarpsborg FK",
    "aliases": [
      "Sarpsborg 08"
    ],
    "city": "Sarpsborg",
    "country": "Norway",
    "latitude": 59.2841,
    "longitude": 11.1096,
    "source": "known_team_geo_seed_city_center_v3"
  },
  {
    "team": "Sassuolo",
    "city": "Sassuolo",
    "country": "Italy",
    "latitude": 44.55,
    "longitude": 10.7833,
    "source": "known_team_geo_seed_city_center_v4"
  },
  {
    "team": "SC Amiens",
    "aliases": [
      "Amiens",
      "Amiens SC"
    ],
    "city": "Amiens",
    "country": "France",
    "latitude": 49.8941,
    "longitude": 2.2958,
    "source": "known_team_geo_seed_city_center_v2"
  },
  {
    "team": "SC Freiburg",
    "aliases": [
      "Freiburg"
    ],
    "city": "Freiburg im Breisgau",
    "country": "Germany",
    "latitude": 47.999,
    "longitude": 7.8421,
    "source": "known_team_geo_seed_city_center_v4"
  },
  {
    "team": "SC Paderborn 07",
    "aliases": [
      "Paderborn"
    ],
    "city": "Paderborn",
    "country": "Germany",
    "latitude": 51.7189,
    "longitude": 8.7575,
    "source": "known_team_geo_seed_city_center_v4"
  },
  {
    "team": "Schalke 04",
    "aliases": [
      "FC Schalke 04",
      "Schalke"
    ],
    "city": "Gelsenkirchen",
    "country": "Germany",
    "latitude": 51.5177,
    "longitude": 7.0857,
    "source": "known_team_geo_seed_city_center_v1"
  },
  {
    "team": "Scunthorpe United",
    "city": "Scunthorpe",
    "country": "England",
    "latitude": 53.5886,
    "longitude": -0.6544,
    "source": "known_team_geo_seed_city_center_v4"
  },
  {
    "team": "Seattle Sounders FC",
    "aliases": [
      "Seattle Sounders"
    ],
    "city": "Seattle",
    "country": "United States",
    "latitude": 47.6062,
    "longitude": -122.3321,
    "source": "known_team_geo_seed_city_center_v2"
  },
  {
    "team": "Shamrock Rovers",
    "city": "Tallaght",
    "country": "Ireland",
    "latitude": 53.2872,
    "longitude": -6.3738,
    "source": "known_team_geo_seed"
  },
  {
    "team": "Shelbourne",
    "city": "Dublin",
    "country": "Ireland",
    "latitude": 53.3498,
    "longitude": -6.2603,
    "source": "known_team_geo_seed"
  },
  {
    "team": "Shimizu S-Pulse",
    "city": "Shizuoka",
    "country": "Japan",
    "latitude": 34.9756,
    "longitude": 138.3828,
    "source": "known_team_geo_seed_city_center_v2"
  },
  {
    "team": "Shrewsbury Town",
    "city": "Shrewsbury",
    "country": "England",
    "latitude": 52.7064,
    "longitude": -2.7529,
    "source": "known_team_geo_seed_city_center_v1"
  },
  {
    "team": "Sint-Truidense",
    "aliases": [
      "STVV",
      "Sint-Truidense VV"
    ],
    "city": "Sint-Truiden",
    "country": "Belgium",
    "latitude": 50.8169,
    "longitude": 5.1864,
    "source": "known_team_geo_seed_city_center_v2"
  },
  {
    "team": "SK Brann",
    "aliases": [
      "Brann"
    ],
    "city": "Bergen",
    "country": "Norway",
    "latitude": 60.3913,
    "longitude": 5.3221,
    "source": "known_team_geo_seed_city_center_v2"
  },
  {
    "team": "Sligo",
    "aliases": [
      "Sligo Rovers"
    ],
    "city": "Sligo",
    "country": "Ireland",
    "latitude": 54.2766,
    "longitude": -8.4761,
    "source": "known_team_geo_seed"
  },
  {
    "team": "Sønderjyske Fodbold",
    "aliases": [
      "Sonderjyske",
      "Sønderjyske"
    ],
    "city": "Haderslev",
    "country": "Denmark",
    "latitude": 55.2494,
    "longitude": 9.4877,
    "source": "known_team_geo_seed_city_center_v3"
  },
  {
    "team": "Southampton",
    "city": "Southampton",
    "country": "England",
    "latitude": 50.9097,
    "longitude": -1.4044,
    "source": "known_team_geo_seed_city_center_v1"
  },
  {
    "team": "Spezia",
    "city": "La Spezia",
    "country": "Italy",
    "latitude": 44.1025,
    "longitude": 9.8241,
    "source": "known_team_geo_seed"
  },
  {
    "team": "Sport Boys",
    "city": "Callao",
    "country": "Peru",
    "latitude": -12.0508,
    "longitude": -77.125,
    "source": "known_team_geo_seed_city_center_v2"
  },
  {
    "team": "Sport Huancayo",
    "city": "Huancayo",
    "country": "Peru",
    "latitude": -12.0651,
    "longitude": -75.2049,
    "source": "known_team_geo_seed_city_center_v3"
  },
  {
    "team": "Sporting Gijón",
    "aliases": [
      "Sporting Gijon",
      "Sporting GijΓ³n"
    ],
    "city": "Gijón",
    "country": "Spain",
    "latitude": 43.5322,
    "longitude": -5.6611,
    "source": "known_team_geo_seed_city_center_v4"
  },
  {
    "team": "Sporting Kansas City",
    "city": "Kansas City",
    "country": "United States",
    "latitude": 39.0997,
    "longitude": -94.5786,
    "source": "known_team_geo_seed_city_center_v2"
  },
  {
    "team": "SpVgg Greuther Fürth",
    "aliases": [
      "Greuther Furth",
      "SpVgg Greuther FΓΌrth"
    ],
    "city": "Fürth",
    "country": "Germany",
    "latitude": 49.4771,
    "longitude": 10.9887,
    "source": "known_team_geo_seed_city_center_v4"
  },
  {
    "team": "St Johnstone",
    "city": "Perth",
    "country": "Scotland",
    "latitude": 56.3969,
    "longitude": -3.437,
    "source": "known_team_geo_seed"
  },
  {
    "team": "St Mirren",
    "city": "Paisley",
    "country": "Scotland",
    "latitude": 55.8473,
    "longitude": -4.4401,
    "source": "known_team_geo_seed_city_center_v2"
  },
  {
    "team": "St. Pauli",
    "aliases": [
      "FC St. Pauli"
    ],
    "city": "Hamburg",
    "country": "Germany",
    "latitude": 53.5511,
    "longitude": 9.9937,
    "source": "known_team_geo_seed_city_center_v4"
  },
  {
    "team": "Stade de Reims",
    "aliases": [
      "Reims"
    ],
    "city": "Reims",
    "country": "France",
    "latitude": 49.2583,
    "longitude": 4.0317,
    "source": "known_team_geo_seed_city_center_v2"
  },
  {
    "team": "Stade Laval",
    "aliases": [
      "Laval"
    ],
    "city": "Laval",
    "country": "France",
    "latitude": 48.0785,
    "longitude": -0.7669,
    "source": "known_team_geo_seed_city_center_v2"
  },
  {
    "team": "Stade Rennais",
    "aliases": [
      "Rennes"
    ],
    "city": "Rennes",
    "country": "France",
    "latitude": 48.1173,
    "longitude": -1.6778,
    "source": "known_team_geo_seed_city_center_v4"
  },
  {
    "team": "Standard Liege",
    "aliases": [
      "Standard Liège"
    ],
    "city": "Liège",
    "country": "Belgium",
    "latitude": 50.6326,
    "longitude": 5.5797,
    "source": "known_team_geo_seed_city_center_v4"
  },
  {
    "team": "Stevenage",
    "city": "Stevenage",
    "country": "England",
    "latitude": 51.9038,
    "longitude": -0.1966,
    "source": "known_team_geo_seed_city_center_v1"
  },
  {
    "team": "Stockport County",
    "city": "Stockport",
    "country": "England",
    "latitude": 53.4106,
    "longitude": -2.1575,
    "source": "known_team_geo_seed_city_center_v1"
  },
  {
    "team": "Suditrol",
    "aliases": [
      "Sudtirol",
      "FC Sudtirol",
      "Südtirol",
      "FC Südtirol"
    ],
    "city": "Bolzano",
    "country": "Italy",
    "latitude": 46.4983,
    "longitude": 11.3548,
    "source": "known_team_geo_seed"
  },
  {
    "team": "Sunderland",
    "city": "Sunderland",
    "country": "England",
    "latitude": 54.9069,
    "longitude": -1.3838,
    "source": "known_team_geo_seed_city_center_v2"
  },
  {
    "team": "SV 07 Elversberg",
    "aliases": [
      "Elversberg"
    ],
    "city": "Spiesen-Elversberg",
    "country": "Germany",
    "latitude": 49.3167,
    "longitude": 7.1333,
    "source": "known_team_geo_seed_city_center_v4"
  },
  {
    "team": "SV Darmstadt 98",
    "aliases": [
      "Darmstadt"
    ],
    "city": "Darmstadt",
    "country": "Germany",
    "latitude": 49.8728,
    "longitude": 8.6512,
    "source": "known_team_geo_seed_city_center_v4"
  },
  {
    "team": "SV Josko Ried",
    "aliases": [
      "SV Ried"
    ],
    "city": "Ried im Innkreis",
    "country": "Austria",
    "latitude": 48.21,
    "longitude": 13.488,
    "source": "known_team_geo_seed_city_center_v2"
  },
  {
    "team": "Swansea City",
    "city": "Swansea",
    "country": "Wales",
    "latitude": 51.6214,
    "longitude": -3.9436,
    "source": "known_team_geo_seed_city_center_v1"
  },
  {
    "team": "Swindon Town",
    "city": "Swindon",
    "country": "England",
    "latitude": 51.5558,
    "longitude": -1.7797,
    "source": "known_team_geo_seed_city_center_v1"
  },
  {
    "team": "Talleres (Córdoba)",
    "aliases": [
      "Talleres",
      "Talleres Cordoba",
      "Talleres (CΓ³rdoba)"
    ],
    "city": "Córdoba",
    "country": "Argentina",
    "latitude": -31.4201,
    "longitude": -64.1888,
    "source": "known_team_geo_seed_city_center_v4"
  },
  {
    "team": "Tigre",
    "city": "Victoria",
    "country": "Argentina",
    "latitude": -34.4464,
    "longitude": -58.5433,
    "source": "known_team_geo_seed_city_center_v3"
  },
  {
    "team": "Tigres UANL",
    "aliases": [
      "Tigres"
    ],
    "city": "San Nicolás de los Garza",
    "country": "Mexico",
    "latitude": 25.7493,
    "longitude": -100.2869,
    "source": "known_team_geo_seed_city_center_v4"
  },
  {
    "team": "Tokyo Verdy 1969",
    "aliases": [
      "Tokyo Verdy"
    ],
    "city": "Tokyo",
    "country": "Japan",
    "latitude": 35.6762,
    "longitude": 139.6503,
    "source": "known_team_geo_seed_city_center_v3"
  },
  {
    "team": "Tondela",
    "city": "Tondela",
    "country": "Portugal",
    "latitude": 40.5168,
    "longitude": -8.0809,
    "source": "known_team_geo_seed_city_center_v4"
  },
  {
    "team": "Torino",
    "city": "Turin",
    "country": "Italy",
    "latitude": 45.0703,
    "longitude": 7.6869,
    "source": "known_team_geo_seed_city_center_v2"
  },
  {
    "team": "Toronto FC",
    "city": "Toronto",
    "country": "Canada",
    "latitude": 43.6532,
    "longitude": -79.3832,
    "source": "known_team_geo_seed_city_center_v2"
  },
  {
    "team": "Tottenham Hotspur",
    "aliases": [
      "Tottenham",
      "Spurs"
    ],
    "city": "London",
    "country": "England",
    "latitude": 51.5074,
    "longitude": -0.1278,
    "source": "known_team_geo_seed_city_center_v4"
  },
  {
    "team": "Toulouse",
    "city": "Toulouse",
    "country": "France",
    "latitude": 43.6047,
    "longitude": 1.4442,
    "source": "known_team_geo_seed_city_center_v4"
  },
  {
    "team": "Trabzonspor",
    "city": "Trabzon",
    "country": "Turkey",
    "latitude": 41.0027,
    "longitude": 39.7168,
    "source": "known_team_geo_seed_city_center_v2"
  },
  {
    "team": "Tranmere Rovers",
    "city": "Birkenhead",
    "country": "England",
    "latitude": 53.3897,
    "longitude": -3.0246,
    "source": "known_team_geo_seed_city_center_v1"
  },
  {
    "team": "Tromso",
    "aliases": [
      "Tromsø",
      "Tromsø IL"
    ],
    "city": "Tromsø",
    "country": "Norway",
    "latitude": 69.6492,
    "longitude": 18.9553,
    "source": "known_team_geo_seed_city_center_v3"
  },
  {
    "team": "Troyes",
    "aliases": [
      "ESTAC Troyes"
    ],
    "city": "Troyes",
    "country": "France",
    "latitude": 48.2973,
    "longitude": 4.0744,
    "source": "known_team_geo_seed_city_center_v2"
  },
  {
    "team": "TSG Hoffenheim",
    "aliases": [
      "Hoffenheim"
    ],
    "city": "Sinsheim",
    "country": "Germany",
    "latitude": 49.2529,
    "longitude": 8.8787,
    "source": "known_team_geo_seed_city_center_v1"
  },
  {
    "team": "TSV Eintracht Braunschweig",
    "aliases": [
      "Eintracht Braunschweig",
      "Braunschweig"
    ],
    "city": "Braunschweig",
    "country": "Germany",
    "latitude": 52.2689,
    "longitude": 10.5268,
    "source": "known_team_geo_seed_city_center_v1"
  },
  {
    "team": "Udinese",
    "city": "Udine",
    "country": "Italy",
    "latitude": 46.0711,
    "longitude": 13.2346,
    "source": "known_team_geo_seed_city_center_v2"
  },
  {
    "team": "Unión (Santa Fe)",
    "aliases": [
      "Union Santa Fe",
      "UniΓ³n (Santa Fe)"
    ],
    "city": "Santa Fe",
    "country": "Argentina",
    "latitude": -31.6333,
    "longitude": -60.7,
    "source": "known_team_geo_seed_city_center_v4"
  },
  {
    "team": "Universitario",
    "aliases": [
      "Universitario de Deportes"
    ],
    "city": "Lima",
    "country": "Peru",
    "latitude": -12.0464,
    "longitude": -77.0428,
    "source": "known_team_geo_seed_city_center_v3"
  },
  {
    "team": "Urawa Red Diamonds",
    "aliases": [
      "Urawa Reds"
    ],
    "city": "Saitama",
    "country": "Japan",
    "latitude": 35.8617,
    "longitude": 139.6455,
    "source": "known_team_geo_seed_city_center_v2"
  },
  {
    "team": "V-Varen Nagasaki",
    "aliases": [
      "V-Varen"
    ],
    "city": "Nagasaki",
    "country": "Japan",
    "latitude": 32.7503,
    "longitude": 129.8777,
    "source": "known_team_geo_seed_city_center_v3"
  },
  {
    "team": "Valencia",
    "city": "Valencia",
    "country": "Spain",
    "latitude": 39.4699,
    "longitude": -0.3763,
    "source": "known_team_geo_seed_city_center_v2"
  },
  {
    "team": "Vålerenga",
    "aliases": [
      "Valerenga"
    ],
    "city": "Oslo",
    "country": "Norway",
    "latitude": 59.9139,
    "longitude": 10.7522,
    "source": "known_team_geo_seed_city_center_v3"
  },
  {
    "team": "Vancouver Whitecaps",
    "aliases": [
      "Vancouver Whitecaps FC"
    ],
    "city": "Vancouver",
    "country": "Canada",
    "latitude": 49.2827,
    "longitude": -123.1207,
    "source": "known_team_geo_seed_city_center_v3"
  },
  {
    "team": "Vasco da Gama",
    "city": "Rio de Janeiro",
    "country": "Brazil",
    "latitude": -22.9068,
    "longitude": -43.1729,
    "source": "known_team_geo_seed_city_center_v3"
  },
  {
    "team": "Västerås SK",
    "aliases": [
      "Vasteras SK"
    ],
    "city": "Västerås",
    "country": "Sweden",
    "latitude": 59.6099,
    "longitude": 16.5448,
    "source": "known_team_geo_seed_city_center_v3"
  },
  {
    "team": "Venda Football Acadamy",
    "aliases": [
      "Venda Football Academy"
    ],
    "city": "Thohoyandou",
    "country": "South Africa",
    "latitude": -22.9456,
    "longitude": 30.4849,
    "source": "known_team_geo_seed_city_center_v4"
  },
  {
    "team": "Venezia",
    "city": "Venice",
    "country": "Italy",
    "latitude": 45.4408,
    "longitude": 12.3155,
    "source": "known_team_geo_seed"
  },
  {
    "team": "VfB Stuttgart",
    "city": "Stuttgart",
    "country": "Germany",
    "latitude": 48.7758,
    "longitude": 9.1829,
    "source": "known_team_geo_seed_city_center_v1"
  },
  {
    "team": "VfL Bochum",
    "aliases": [
      "Bochum"
    ],
    "city": "Bochum",
    "country": "Germany",
    "latitude": 51.4818,
    "longitude": 7.2162,
    "source": "known_team_geo_seed_city_center_v1"
  },
  {
    "team": "VfL Wolfsburg",
    "aliases": [
      "Wolfsburg"
    ],
    "city": "Wolfsburg",
    "country": "Germany",
    "latitude": 52.4227,
    "longitude": 10.7865,
    "source": "known_team_geo_seed_city_center_v4"
  },
  {
    "team": "Viking FK",
    "city": "Stavanger",
    "country": "Norway",
    "latitude": 58.97,
    "longitude": 5.7331,
    "source": "known_team_geo_seed"
  },
  {
    "team": "Villarreal",
    "city": "Villarreal",
    "country": "Spain",
    "latitude": 39.9383,
    "longitude": -0.1009,
    "source": "known_team_geo_seed_city_center_v2"
  },
  {
    "team": "Vissel Kobe",
    "city": "Kobe",
    "country": "Japan",
    "latitude": 34.6901,
    "longitude": 135.1955,
    "source": "known_team_geo_seed_city_center_v2"
  },
  {
    "team": "Vitória",
    "aliases": [
      "Vitoria",
      "VitΓ³ria"
    ],
    "city": "Salvador",
    "country": "Brazil",
    "latitude": -12.9777,
    "longitude": -38.5016,
    "source": "known_team_geo_seed_city_center_v4"
  },
  {
    "team": "Volos NFC",
    "aliases": [
      "Volos"
    ],
    "city": "Volos",
    "country": "Greece",
    "latitude": 39.3622,
    "longitude": 22.9422,
    "source": "known_team_geo_seed_city_center_v4"
  },
  {
    "team": "Walsall",
    "city": "Walsall",
    "country": "England",
    "latitude": 52.5862,
    "longitude": -1.9829,
    "source": "known_team_geo_seed_city_center_v1"
  },
  {
    "team": "Waterford",
    "city": "Waterford",
    "country": "Ireland",
    "latitude": 52.2593,
    "longitude": -7.1101,
    "source": "known_team_geo_seed"
  },
  {
    "team": "Watford",
    "city": "Watford",
    "country": "England",
    "latitude": 51.6565,
    "longitude": -0.3903,
    "source": "known_team_geo_seed_city_center_v1"
  },
  {
    "team": "Werder Bremen",
    "city": "Bremen",
    "country": "Germany",
    "latitude": 53.0793,
    "longitude": 8.8017,
    "source": "known_team_geo_seed_city_center_v1"
  },
  {
    "team": "West Ham United",
    "city": "London",
    "country": "England",
    "latitude": 51.5074,
    "longitude": -0.1278,
    "source": "known_team_geo_seed_city_center_v2"
  },
  {
    "team": "Wigan Athletic",
    "city": "Wigan",
    "country": "England",
    "latitude": 53.5451,
    "longitude": -2.6325,
    "source": "known_team_geo_seed_city_center_v1"
  },
  {
    "team": "Wolverhampton Wanderers",
    "aliases": [
      "Wolves"
    ],
    "city": "Wolverhampton",
    "country": "England",
    "latitude": 52.5862,
    "longitude": -2.128,
    "source": "known_team_geo_seed_city_center_v2"
  },
  {
    "team": "WSG Swarovski Tirol",
    "aliases": [
      "WSG Tirol"
    ],
    "city": "Wattens",
    "country": "Austria",
    "latitude": 47.2948,
    "longitude": 11.59,
    "source": "known_team_geo_seed_city_center_v2"
  },
  {
    "team": "Wycombe Wanderers",
    "city": "High Wycombe",
    "country": "England",
    "latitude": 51.6287,
    "longitude": -0.7482,
    "source": "known_team_geo_seed_city_center_v1"
  },
  {
    "team": "Yokohama F. Marinos",
    "aliases": [
      "Yokohama F Marinos"
    ],
    "city": "Yokohama",
    "country": "Japan",
    "latitude": 35.4437,
    "longitude": 139.638,
    "source": "known_team_geo_seed_city_center_v2"
  }
]
